results,dba_name,license_number,inspection_date,facility_type,risk,zip,latitude,longitude,v_cumsum,v_cumsum_cs
Fail,DONA TOLA,2684259,01/02/2020,Restaurant,1,60613,41.95034913354049,-87.66396116151019,0,0
Pass,KIKKA @ WHOLE FOODS STREETERVILLE,2373596,01/03/2018,Restaurant,1,60611,41.891689839806666,-87.62044413482636,0,0
Pass,WALGREENS # 09001,1542416,01/03/2018,Grocery Store,3,60601,41.88549078428762,-87.63082227177384,0,0
Fail,Gin Sen,2863232,01/03/2023,Restaurant,1,60647,41.91949090356442,-87.67783010976112,7,2
Pass,"LOS ARCOS AUTHENTIC MEXICAN FOOD, INC.",2886566,01/03/2023,Restaurant,1,60640,41.982461137454926,-87.66839934788841,0,0
Pass,"LOS ARCOS AUTHENTIC MEXICAN FOOD, INC.",2886567,01/03/2023,Restaurant,1,60640,41.982461137454926,-87.66839934788841,0,0
Pass,"LOS ARCOS AUTHENTIC MEXICAN FOOD, INC.",2232454,01/03/2023,Restaurant,1,60640,41.982461137454926,-87.66839934788841,1,0
Pass,Dunkin Donuts,2202879,01/04/2013,Restaurant,2,60622,41.91796074174603,-87.67270436980655,0,0
Pass,HIM SHIKAR,2147560,01/04/2018,Restaurant,1,60646,41.99081932749717,-87.74818192225709,1,0
Pass,SUBWAY,1573944,01/04/2022,Restaurant,1,60622,41.905131758861906,-87.66768922073551,1,0
Fail,SHOP-N-SAVE,2767279,01/04/2023,Grocery Store,2,60619,41.765501123078735,-87.62017368759007,13,3
Pass,ROTI MODERN MEDITERRANEAN,2470641,01/04/2023,Restaurant,1,60601,41.885847208704554,-87.62509485736301,1,0
Pass,DON PABLO'S KITCHEN AND BAKESHOP,2822972,01/04/2023,Restaurant,1,60640,41.97319805257552,-87.65524806242914,7,0
Pass,SWEET MAPLE CAFE,76798,01/04/2023,Restaurant,1,60607,41.869242742082626,-87.66079656924279,4,0
Fail,BIG BOSS SPICY FRIED CHICKEN,2807954,01/04/2023,Restaurant,1,60608,41.84638121795965,-87.64661301435865,16,4
Fail,STEVE'S LOUNGE,833,01/04/2023,Restaurant,1,60633,41.655416650555715,-87.54729079495272,19,1
Fail,STARBUCKS COFFEE #47362,2766559,01/04/2023,Restaurant,2,60608,41.83773645864835,-87.64641676369209,2,1
Pass,MCDONALDS,2882419,01/04/2023,Restaurant,2,60629,41.78889143422201,-87.70327959216557,0,0
Pass,AL - JOUD INVESTMENT,2882673,01/04/2023,Grocery Store,3,60651,41.902468382006454,-87.7264432559915,6,1
Fail,SAVE A LOT,2830633,01/04/2023,Grocery Store,2,60628,41.69954741466738,-87.64275191512002,6,1
Fail,CHAYHANA,2442858,01/04/2023,Restaurant,1,60618,41.95394859951932,-87.68539017232962,10,2
Pass,TARGET STORE T3349,2723527,01/04/2023,Grocery Store,3,60614,41.921779974420936,-87.64366314188526,3,0
Fail,PORKCHOP RESTAURANT AND BAR,2851433,01/04/2023,Restaurant,1,60660,41.997594186195435,-87.66034486500234,10,3
Fail,SUPERMERCADO LA RAZA CORP,2767138,01/04/2023,Grocery Store,1,60609,41.80847785608591,-87.66674535125476,6,2
Fail,PHLOUR BAKERY AND CAFE,2522179,01/04/2023,Bakery,1,60660,41.98373915183195,-87.65964672940271,4,2
Fail,SWEETGREEN,2886570,01/04/2023,Restaurant,1,60647,41.92673659835983,-87.70382782692913,1,0
Pass,EVERYDAY FRIDAY DEALS CHICAGO INC.,2886532,01/04/2023,Grocery Store,3,60639,41.9311212237607,-87.76955418373417,2,0
Fail,O'LEARY'S PUBLIC HOUSE,32939,01/04/2023,Restaurant,1,60654,41.89198922796648,-87.63393057860532,11,3
Fail,7- ELEVEN,46905,01/04/2023,Grocery Store,2,60605,41.87448116568133,-87.62935653990546,4,2
Fail,"SUPERMERCADO SANCHEZ, INC.",1648074,01/04/2023,Grocery Store,1,60629,41.78649619589489,-87.69475632036104,2,0
Pass,JIMMY JOHN'S,2463579,01/04/2023,Restaurant,1,60657,41.942396126778384,-87.65282389448343,4,0
Pass,"HING WANG, INC",1942312,01/04/2023,Restaurant,1,60640,41.96549804345954,-87.65832493927576,4,0
Pass,FLO & SANTO,2355411,01/04/2023,Restaurant,1,60605,41.86539975663988,-87.62593556962943,5,1
Pass,LOS ASADORES MEXICAN GRILL,2689613,01/04/2023,Restaurant,1,60625,41.97582181741593,-87.71172940864518,1,0
Pass,RED & WHITE WINES,2457409,01/04/2023,Restaurant,1,60647,41.91537964796298,-87.68473893840267,4,1
Fail,SHERI & JAMES FOOD MART,2882312,01/04/2023,Grocery Store,3,60651,41.90547420777515,-87.71161567739858,2,2
Fail,EINSTEIN BROS. BAGELS #3505,1904661,01/04/2023,Restaurant,1,60654,41.88926952817214,-87.62973533104446,12,2
Fail,GODDESS AND THE BAKER,2476370,01/04/2023,Restaurant,1,60601,41.886706472621086,-87.63174094543632,4,2
Fail,LITTLE CAESAR PIZZA #1650,2221,01/04/2023,Restaurant,2,60608,41.839488997116675,-87.64646085648725,3,1
Pass,DUNKIN DONUTS/BASKIN ROBBINS,2246679,01/04/2023,Restaurant,2,60647,41.91172836810168,-87.68711088184462,2,0
Pass,BORDEAUX LOUNGE BY TURQUOISE,2657949,01/04/2023,Restaurant,1,60618,41.94305483117927,-87.68273539578196,6,0
Pass,"LAWRENCE'S FISHERIES, INC.",3320,01/04/2023,Restaurant,1,60616,41.85370199736114,-87.63870832843236,1,0
Pass,THE BREAKFAST CLUB INC,12587,01/04/2023,Restaurant,1,60642,41.8898328600129,-87.662167834679,10,0
Fail,WINGS OVER CANAL,2501494,01/04/2023,Restaurant,1,60607,41.867362692616666,-87.63929319464197,6,0
Fail,D'AGOSTINO'S II,1305825,01/04/2023,Restaurant,1,60642,41.89558430998033,-87.65538895169536,10,3
Fail,GOLDEN GRAIN BAKERY AND DONUTS CORPORATION,2288717,01/04/2023,Restaurant,1,60625,41.968518497633795,-87.71263165748292,2,0
Pass,SUBWAY,1964058,01/04/2023,Restaurant,1,60643,41.67761612849284,-87.66316025686356,1,0
Pass,CARNICERIA RUIZ INC,31999,01/04/2023,Grocery Store,1,60618,41.935791573062026,-87.70738433276505,5,0
Fail,YUMMY THAI,2822782,01/04/2023,Restaurant,1,60607,41.869436666300544,-87.66247601980271,12,2
Pass,Lou Malnati's Pizzeria,1042399,01/04/2023,Restaurant,1,60614,41.92911994883241,-87.65359186197217,3,0
Pass,BABA JOE'S,2876870,01/04/2023,Grocery Store,3,60625,41.96844268351419,-87.71969561484795,0,0
Pass,NICKY'S HOT DOGS,68304,01/04/2023,Restaurant,1,60632,41.80961441468273,-87.7235017087537,1,0
Fail,PRIME & PROVISIONS,2780952,01/04/2023,Restaurant,1,60601,41.886351604488574,-87.63261394551859,7,1
Fail,NEW SUNNY SUB & FISH INC.,2464777,01/04/2023,Restaurant,2,60619,41.76581937535938,-87.61534676528679,7,1
Pass,G N P H #TWO INC,37911,01/04/2023,Restaurant,1,60640,41.96871895265764,-87.67359188435232,5,2
Pass,SUBWAY,2446619,01/04/2023,Restaurant,1,60636,41.76789331709745,-87.6640189682719,4,0
Fail,OBAMA FOOD MART,2004238,01/05/2010,Grocery Store,3,60649,41.75165523778611,-87.58082842408824,0,0
Fail,MONICA'S SWEET POTATOES,1804213,01/05/2011,Restaurant,1,60653,41.809316524975266,-87.61379035901513,9,2
Fail,KINGSTON MINES,1650,01/05/2011,Restaurant,1,60614,41.92872347700267,-87.64902257806406,10,1
Pass,FRESHII,2138647,01/05/2015,Restaurant,1,60603,41.88066457839605,-87.6270893644417,1,0
Pass,KAWA FOODS,2373814,01/05/2015,Grocery Store,1,60612,41.88106937422222,-87.68530755272025,0,0
Pass,PRET A MANGER,2103296,01/05/2016,Restaurant,1,60603,41.88059104764139,-87.6305091299425,0,0
Pass,EL AZTECA,2483311,01/05/2018,Restaurant,1,60639,41.924059105725746,-87.75172800437389,0,0
Pass,J & C FOOD MARKET INC,1227762,01/05/2023,Grocery Store,1,60618,41.953963260566255,-87.71313765408152,5,1
Pass,EUREST DINING AT BROOKFIELD PROPERTIES,2881882,01/05/2023,Restaurant,2,60602,41.883328409152504,-87.62705900255914,0,0
Pass,SUBWAY,2529116,01/05/2023,Restaurant,1,60639,41.92799528871574,-87.78575236468352,0,0
Fail,Cozy Corner Restaurant and Pancake House,2631798,01/05/2023,Restaurant,1,60656,41.979836274250594,-87.8071274172471,4,1
Pass,THE BURGER POINT,2458622,01/05/2023,Restaurant,1,60616,41.856494443726604,-87.627317220209,4,0
Fail,PRIME FISH,2463968,01/05/2023,Restaurant,1,60620,41.74810405559482,-87.64411513161956,5,2
Fail,POTBELLY SANDWICH WORKS LLC,1543762,01/05/2023,Restaurant,1,60607,41.86919159569781,-87.66401334265312,6,0
Pass,TAQUERIA CHINGON LLC,2886300,01/05/2023,Restaurant,1,60647,41.92265069127367,-87.68771967162458,0,0
Fail,WHOLE FOODS MARKET,1933690,01/05/2023,Grocery Store,1,60642,41.90939878780941,-87.65305069789407,8,1
Fail,CHIPOTLE MEXICAN GRILL #3430,2670644,01/05/2023,Restaurant,1,60605,41.86797982367172,-87.62598154133049,3,0
Pass,"BAHA RESTAURANT, INC.",2602031,01/05/2023,Restaurant,1,60639,41.93162026012076,-87.74832456297335,0,0
Fail,"BAI CAFE, INC.",2078772,01/05/2023,Restaurant,1,60657,41.94360207196127,-87.66891732656353,11,3
Pass,CAPITAL ONE CAFE,2882586,01/05/2023,Restaurant,1,60615,41.79943293964355,-87.58923799532896,0,0
Fail,JIMMY JOHNS,2767073,01/05/2023,Restaurant,1,60654,41.895062395602416,-87.62801032492992,8,3
Fail,RED LOBSTER #0277,2333153,01/05/2023,Restaurant,1,60632,41.79850994776847,-87.72316542310595,6,2
Pass,EUREST DINING AT BROOKFIELD PROPERTIES,2881884,01/05/2023,Restaurant,2,60602,41.883328409152504,-87.62705900255914,0,0
Fail,PAT'S PIZZA,1817276,01/05/2023,Restaurant,1,60605,41.87396103697072,-87.63080445228692,6,1
Fail,FAIRPLAY FINER FOOD,10940,01/05/2023,Grocery Store,1,60608,41.85198383957328,-87.68578570420526,10,2
Fail,BAWARCHI ON OKALEY,2708649,01/05/2023,Restaurant,1,60645,41.99803106929147,-87.68760322515347,10,2
Pass,TAQUERIA CHINGON LLC,2886299,01/05/2023,Restaurant,1,60647,41.92265069127367,-87.68771967162458,0,0
Fail,CAFE EL TAPATIO,2432567,01/05/2023,Restaurant,1,60657,41.943432313397565,-87.66891275635102,6,0
Pass,SUBWAY SANDWICH & SALAD,1276237,01/05/2023,Restaurant,1,60640,41.97891352967985,-87.66008655043495,2,0
Fail,LUCKY STRIKE LANES,2354295,01/05/2023,Restaurant,1,60611,41.891133170854566,-87.61916020704619,4,2
Fail,"NEW L A SUBMARINE, INC.",2289386,01/05/2023,Restaurant,1,60619,41.7383177997208,-87.60472450850637,10,2
Pass,"POSITANOS RESTAURANT & PIZZA, INC.",1959937,01/05/2023,Restaurant,1,60609,41.805447445608166,-87.66503168679836,5,1
Fail,LA FLORENCIA BAKERY,1742901,01/05/2023,Bakery,2,60617,41.70550648249998,-87.53513945323924,18,1
Fail,ELI TEA BAR,2803684,01/05/2023,Restaurant,1,60640,41.981910361685216,-87.66831166669041,2,1
Pass,TAQUERIA LAS FLORES,2694699,01/05/2023,Restaurant,1,60625,41.975805123578695,-87.7132619526397,2,0
Pass,NAPLES PIZZA,2771190,01/05/2023,Restaurant,1,60609,41.81140787653937,-87.66489739697124,1,0
Fail,PARK TO SHOP SUPERMARKET CANAL,2684483,01/05/2023,Grocery Store,1,60616,41.85665717815976,-87.63875334531697,7,2
Fail,SUBWAY,2183563,01/05/2023,Restaurant,1,60617,41.70257660937248,-87.52587169711877,6,2
Pass,CAMARON VAQUERO INC.,2294053,01/05/2023,Restaurant,1,60629,41.77919212128587,-87.72292239244632,3,0
Pass,LA BARCA,21110,01/05/2023,Restaurant,1,60609,41.80861135030531,-87.6562138229373,3,1
Fail,GINA'S CHICKEN,37407,01/05/2023,Restaurant,1,60617,41.70264615625913,-87.54067794104229,5,0
Fail,MAYAN PALACE 2,2627144,01/05/2023,Restaurant,1,60614,41.93217875319461,-87.6488453709766,6,2
Fail,STARBUCKS COFFEE #2510,2813111,01/05/2023,Restaurant,2,60654,41.889682960687374,-87.63712095614753,4,1
Pass,KLEIN'S BAKERY & CAFE,2528390,01/05/2023,Restaurant,1,60613,41.95845951159845,-87.65287375436044,1,0
Pass,RIVER ROAST,1647557,01/05/2023,Restaurant,1,60654,41.887920731996346,-87.63235953008895,10,1
Fail,MARIANO'S #8516,2326979,01/05/2023,Grocery Store,1,60614,41.92024549048859,-87.66857296261333,6,0
Pass,LASCHET'S INN,2542182,01/05/2023,Restaurant,1,60618,41.953997919864065,-87.68206242189052,4,1
Pass,TAQUERIA CHINGON LLC,2758229,01/05/2023,Restaurant,1,60647,41.92265069127367,-87.68771967162458,3,0
Pass,SWEETGREEN,2886570,01/05/2023,Restaurant,1,60647,41.92673659835983,-87.70382782692913,1,0
Fail,SUBWAY SANDWICH & SALAD,1243910,01/05/2023,Restaurant,1,60608,41.852142589161744,-87.68536057746589,3,2
Pass,JIM'S ORIGINAL,1620411,01/05/2023,Restaurant,1,60607,41.865784541221885,-87.6452147735033,4,0
Pass,SUBWAY,2516813,01/05/2023,Restaurant,1,60634,41.95407306311155,-87.78674347222507,1,0
Pass,EUREST DINING AT BROOKFIELD PROPERTIES,2881883,01/05/2023,Restaurant,2,60602,41.883328409152504,-87.62705900255914,0,0
Fail,LEMME GET UMMM,2856302,01/05/2023,Restaurant,2,60615,41.80189763712391,-87.62220008978774,5,1
Pass,DEVON MARKET,1042888,01/05/2023,Grocery Store,1,60660,41.99822825376651,-87.66710446646866,7,0
Pass,PANDA EXPRESS #1878,2059545,01/05/2023,Restaurant,1,60611,41.89168851736832,-87.62430717812579,0,0
Pass,EL MIRADOR RESTAURANT,2427620,01/05/2023,Restaurant,1,60639,41.931457214225205,-87.7605265711278,3,0
Pass,ARABESK CAFE INC,2068691,01/06/2011,Restaurant,1,60625,41.96819485557913,-87.72227079662382,0,0
Pass,LIFE TIME RIVER NORTH AT ONE CHICAGO,2823344,01/06/2022,Restaurant,1,60654,41.89655847960636,-87.62885920239039,0,0
Pass,PROTEIN BAR,2138022,01/06/2023,Restaurant,1,60601,41.88670422864661,-87.62805355978018,0,0
Pass,REILLY'S DAUGHTER IRISH PUB,2584039,01/06/2023,Restaurant,1,60638,41.789329323265385,-87.74164564419637,0,0
Fail,LA MICHOACANA FRUTILETA #2,2652317,01/06/2023,Restaurant,1,60639,41.91724548227196,-87.72894168564135,1,1
Pass,DISCO TACOS,2827150,01/06/2023,Restaurant,1,60613,41.96147827109243,-87.66949202485075,0,0
Pass,JASON'S DELI,1909063,01/06/2023,Restaurant,1,60607,41.86565118211974,-87.63934463078186,3,0
Pass,CORNER BAKERY CAFE,1649356,01/06/2023,Restaurant,1,60603,41.88007510168006,-87.6324578753162,4,0
Pass,PETE'S PIZZA,1245927,01/06/2023,Restaurant,1,60618,41.94966455107424,-87.68819214082336,13,1
Pass,FOOD ON THE RUN,2713354,01/06/2023,Restaurant,1,60620,41.747422254096726,-87.66350827834202,0,0
Fail,M & H FOOD & DELI,2886652,01/06/2023,Restaurant,1,60628,41.703415218678,-87.62080967911609,10,3
Fail,TACOS EL MERCADITO LLC,2876629,01/06/2023,Restaurant,1,60638,41.77809971363702,-87.7649646656073,1,1
Fail,WESTIN RIVER NORTH CHGO HOTEL - EMPLOYEE CAFE,55254,01/06/2023,Restaurant,1,60654,41.88807037763845,-87.62969225672218,5,2
Fail,ENERGY FIT,2560754,01/06/2023,Restaurant,2,60634,41.9384201229357,-87.76992299038338,3,2
Pass,CASA ROMAN,11900,01/06/2023,Grocery Store,1,60626,42.008856472240936,-87.67408037396193,2,0
Pass,PANERA BREAD #6149,2808726,01/06/2023,Restaurant,1,60612,41.87503334144109,-87.66875300130346,2,0
Pass,POKE BOWL CO,2528819,01/06/2023,Restaurant,1,60642,41.90939878780941,-87.65305069789407,2,0
Pass,KENTUCKY FRIED CHICKEN,2565167,01/06/2023,Restaurant,1,60649,41.7592577374356,-87.58560213727299,7,0
Pass,DOMINOS PIZZA,2882078,01/06/2023,Restaurant,2,60651,41.895615313545314,-87.70670532510552,1,0
Pass,JACK AND GINGERS,1767508,01/06/2023,Restaurant,1,60647,41.917829917196265,-87.67953075090323,2,0
Pass,ROTI MODERN MEDITERRANEAN,2559602,01/06/2023,Restaurant,1,60642,41.910948762561205,-87.65315955127153,4,0
Pass,WHOLE FOODS MARKET,2863386,01/06/2023,Grocery Store,1,60642,41.90939878780941,-87.65305069789407,3,0
Fail,SHOP-N-SAVE,2767279,01/06/2023,Grocery Store,2,60619,41.765501123078735,-87.62017368759007,22,4
Pass,"PANADERIA AYUTLA, CORP.",1884826,01/06/2023,Bakery,1,60626,42.00843197634142,-87.67368384444221,4,0
Fail,HAPPY MART,2689023,01/06/2023,Grocery Store,1,60616,41.85205082671266,-87.63287403404587,11,1
Pass,AMSTAR,2152845,01/06/2023,Grocery Store,2,60620,41.730593381254266,-87.66305762988213,2,0
Pass,HUDSON NONSTOP,2791520,01/06/2023,Grocery Store,3,60638,41.789329323265385,-87.74164564419637,0,0
Fail,DUNKIN DONUTS AND BASKIN ROBBINS,2405626,01/06/2023,Restaurant,2,60616,41.84755805016441,-87.64549599168248,7,1
Fail,SAKURA TEPPANYAKI AND SUSHI,2064355,01/06/2023,Restaurant,1,60614,41.93285532207793,-87.64773750079577,16,8
Pass,WHOLE FOODS MARKET,2368402,01/06/2023,Grocery Store,1,60615,41.80182963116751,-87.5878260476961,7,0
Fail,TACO BELL,2647183,01/06/2023,Restaurant,1,60609,41.80983789260474,-87.6751211979834,3,2
Pass,SUBWAY,1980425,01/06/2023,Restaurant,1,60634,41.945598987087536,-87.7665992429523,3,1
Pass,Hearth and Crust Restaurant,2464729,01/06/2023,Restaurant,1,60618,41.95387754108717,-87.718238078095,2,0
Fail,THE CONGRESS HOTEL,49248,01/06/2023,Restaurant,1,60605,41.87525982581901,-87.6243966738356,5,3
Pass,NICKY'S RESTAURANT,49913,01/06/2023,Restaurant,1,60620,41.75104964416283,-87.68272735043797,1,0
Pass,"ITALIAN VILLAGE RESTAURANT, INC.",1237,01/06/2023,Restaurant,1,60603,41.880591895360816,-87.63044232703336,3,1
Fail,WingStop,2443157,01/06/2023,Restaurant,1,60608,41.8521436196765,-87.68504520753409,2,1
Fail,POPEYE'S#835,2594633,01/06/2023,Restaurant,1,60624,41.86621301898216,-87.7127816493052,8,3
Fail,WENDYS OLD FASHIONED HAMBURGERS,2308240,01/06/2023,Restaurant,1,60628,41.68194036015946,-87.64195936290173,5,1
Fail,WESTIN RIVER NORTH CHGO HOTEL- MAIN KITCHEN,55255,01/06/2023,Restaurant,1,60654,41.88807037763845,-87.62969225672218,13,3
Pass,SUBWAY,2470205,01/06/2023,Restaurant,1,60626,42.00155690675642,-87.67165231818775,0,0
Pass,ELVIA GAMA,2423902,01/06/2023,Restaurant,1,60647,41.91723544708353,-87.71165855157675,4,0
Fail,EL TEXCAL RESTAURANT,2652423,01/06/2023,Restaurant,1,60625,41.96843111302068,-87.72076005083134,4,1
Pass,ARMANDS PIZZERIA,2064468,01/06/2023,Restaurant,1,60618,41.95762626112201,-87.68842561175057,5,0
Pass,WINGSTOP RESTAURANT,2728527,01/06/2023,Restaurant,1,60609,41.80861587986066,-87.67638448034334,1,1
Fail,THE CONGRESS HOTEL,49256,01/06/2023,Restaurant,1,60605,41.87525982581901,-87.6243966738356,8,1
Pass,DOMINO'S,2483064,01/06/2023,Restaurant,2,60651,41.895615313545314,-87.70670532510552,0,0
Fail,TAQUERIA EL TAQUIN,2437446,01/06/2023,Restaurant,1,60633,41.65341672991905,-87.54576846807524,14,2
Fail,MINNA'S RESTAURANT,2374752,01/06/2023,Restaurant,1,60639,41.91695672568109,-87.75280847188141,2,1
Pass,TAQUERIA LA CIUDAD,2812788,01/06/2023,Restaurant,1,60609,41.802825619757144,-87.6646684305344,2,0
Fail,CHICAGO PRODUCE,1865,01/06/2023,Grocery Store,1,60625,41.96848537331812,-87.71587132951537,5,1
Pass,THE MOONLIGHTER,2484008,01/06/2023,Restaurant,1,60647,41.91750971586693,-87.70721668999688,2,0
Fail,TRADER JOE'S,1991799,01/06/2023,Grocery Store,2,60613,41.94996117114196,-87.67567112925495,3,1
Fail,BARRACO'S PIZZA AND THE VINEYARD BANQUETS,2636205,01/06/2023,Restaurant,1,60643,41.72093007202349,-87.67509659799771,9,1
Fail,DUNKIN DONUT,2109876,01/06/2023,Restaurant,2,60617,41.7299824882975,-87.55140126696199,12,3
Fail,KAM FUNG RESTAURANT,2616223,01/06/2023,Restaurant,1,60616,41.85227106094055,-87.63272835813885,6,2
Fail,CHICK-FIL-A,2767043,01/06/2023,Restaurant,1,60607,41.86878882228545,-87.64091692235533,4,1
Fail,EL NUEVO TACONAZO,2437850,01/06/2023,Restaurant,1,60608,41.85214284687163,-87.68528173498287,10,6
Fail,THAI BOWL,54665,01/06/2023,Restaurant,1,60607,41.869366867653206,-87.65307781491383,12,1
Fail,WESTIN RIVER NORTH CHGO HOTEL - EMBER,55247,01/06/2023,Restaurant,1,60654,41.88807037763845,-87.62969225672218,12,2
Pass,NICK JR.'S GRILL,1992471,01/07/2013,Restaurant,1,60707,41.90910578560824,-87.7970900667382,0,0
Fail,Yuki Hana,2288847,01/07/2014,Restaurant,1,60657,41.93528683052736,-87.64707246891297,0,0
Fail,Yuki Hana,2288846,01/07/2014,Restaurant,1,60657,41.93528683052736,-87.64707246891297,0,0
Pass,THE GODFREY HOTEL CHICAGO,2233059,01/07/2014,Restaurant,1,60654,41.894706183704464,-87.63242229170142,0,0
Pass,RAPIDITO,2283146,01/07/2014,Restaurant,2,60614,41.9322141790719,-87.67498720120979,1,0
Pass,BRAZILIAN BOWL FRESH GRILL,2437092,01/07/2016,Restaurant,1,60625,41.9685605606405,-87.70853637445603,0,0
Fail,Red Square,2177682,01/07/2016,Restaurant,1,60622,41.903331032063555,-87.67543391800301,11,5
Pass,DEFLOURED,2442791,01/08/2016,Bakery,2,60640,41.97974300062088,-87.66781107510946,0,0
Pass,CHIPOTLE MEXICAN GRILL,1044712,01/08/2020,Restaurant,1,60604,41.87833154856475,-87.62732389735858,0,0
Pass,Embassy Suites Hotel,1546507,01/09/2014,Restaurant,1,60611,41.8914048806943,-87.62008122973772,0,0
Fail,TOMMY'S ON HIGGINS,37611,01/09/2015,Restaurant,1,60656,41.98016396176816,-87.80207994293053,12,3
Pass,SUBWAY,2621567,01/09/2020,Restaurant,1,60609,41.815329857960506,-87.66528799042858,0,0
Fail,UNCLE REMUS,2642353,01/09/2020,Restaurant,1,60644,41.88040118054544,-87.74408951751022,20,4
Pass,LOTTIE'S PUB,31190,01/09/2023,Restaurant,1,60622,41.915854880451626,-87.6762179092616,2,0
Pass,COREY'S NYC BAGEL DELI,1403499,01/09/2023,Restaurant,1,60642,41.910729292099305,-87.65315262189527,4,0
Pass,BURGER BARON,9051,01/09/2023,Restaurant,1,60642,41.89091932924198,-87.66218858298451,7,1
Pass,MIDDLE EAST GRILL,57451,01/09/2023,Restaurant,1,60640,41.97629123440587,-87.66897680929686,4,0
Fail,OLIVE MEDITERRANEAN GRILL,2555849,01/09/2023,Restaurant,1,60605,41.876965234383015,-87.63344261019748,7,3
Fail,MARIANO'S #8538,2446998,01/09/2023,Grocery Store,1,60657,41.93733843730944,-87.64445647150518,7,2
Fail,TAQUERIA SUPER BURRITO INC,2776095,01/09/2023,Restaurant,1,60622,41.90863767362906,-87.68732449576194,1,1
Pass,"NEW WEST SIDE GYRO INC.,",2840093,01/09/2023,Restaurant,1,60612,41.87136341003245,-87.68631728625324,3,0
Pass,PETE'S GRILL,2664621,01/09/2023,Restaurant,1,60626,42.01920330831344,-87.6735792364474,2,0
Pass,DUNKIN DONUTS,34217,01/09/2023,Restaurant,2,60666,42.008536400868735,-87.91442843927047,2,0
Pass,TUSCANY CAFE,1916161,01/09/2023,Restaurant,1,60666,42.008536400868735,-87.91442843927047,5,0
Pass,THE LITTLE INDIA,1892841,01/09/2023,Restaurant,1,60660,41.983542609997954,-87.65842914502518,2,0
Pass,7-ELEVEN,1915777,01/09/2023,Grocery Store,2,60607,41.86939363940578,-87.66515238810635,2,0
Pass,SNAIL THAI CUISINE,1617795,01/09/2023,Restaurant,1,60615,41.79510794419416,-87.58467767057986,2,0
Pass,THE GREAT AMERICAN BAGEL,1879166,01/09/2023,Restaurant,1,60666,42.008536400868735,-87.91442843927047,2,0
Pass,DUNKIN DONUTS AND BASKIN ROBBINS,2405626,01/09/2023,Restaurant,2,60616,41.84755805016441,-87.64549599168248,7,1
Fail,HOTEL JULIAN,2583575,01/09/2023,Restaurant,1,60601,41.88496522149707,-87.6246241985837,6,6
Fail,MADISON 4102,2845057,01/09/2023,Grocery Store,3,60624,41.880803325267415,-87.72831805265798,2,0
Fail,S2 EXPRESS GRILL,2678193,01/09/2023,Restaurant,1,60609,41.80162841617951,-87.645492014632,6,2
Fail,KENTUCKY FRIED CHICKEN #5287,2523422,01/09/2023,Restaurant,1,60617,41.722241316658945,-87.5843801363996,13,3
Pass,PODHALANKA RESTAURANT,10559,01/09/2023,Restaurant,1,60642,41.90324286545451,-87.66706204782344,4,0
Fail,Hirsch Metro. (H/S),47031,01/09/2023,School,1,60619,41.75376120204399,-87.60176452344395,9,2
Fail,TIGER SUGAR,2827991,01/09/2023,Restaurant,2,60616,41.854059306572985,-87.63261533073911,7,3
Pass,KANELA,2458615,01/09/2023,Restaurant,1,60640,41.98020464496523,-87.66815868013656,5,0
Pass,OMARCITO'S LATIN CAFE,2886398,01/09/2023,Restaurant,1,60647,41.92422112044345,-87.72202184197629,1,0
Pass,DUNKIN DONUTS,32534,01/09/2023,Restaurant,2,60622,41.90452395740259,-87.66767409011773,3,0
Pass,ME-GA CARNITAS,2616796,01/09/2023,Restaurant,1,60629,41.777509836196906,-87.72287892184079,2,0
Pass,BUFFALO WILD WINGS #870,2886469,01/09/2023,Restaurant,1,60640,41.97868641481756,-87.66008011904978,2,1
Pass,WENDY'S,2636249,01/09/2023,Restaurant,1,60620,41.734880618955415,-87.6255519405575,2,0
Fail,KABOBI,2313793,01/09/2023,Restaurant,1,60625,41.96807735259296,-87.70860691495594,8,1
Fail,BAR SIENA,2308791,01/09/2023,Restaurant,1,60607,41.884496686293886,-87.64866550824529,8,2
Pass,ALBERTO'S PIZZA,6475,01/09/2023,Restaurant,1,60626,42.00803844718281,-87.66481711901136,1,0
Pass,TASTEE ROLLS 2,2758012,01/09/2023,Restaurant,1,60619,41.75114056062127,-87.6199442942335,7,0
Pass,ALOHA POKE BELMONT LLC,2469852,01/09/2023,Restaurant,1,60657,41.93984770566612,-87.65095480876889,3,0
Fail,ALESSANDRO VOLTA ELEMENTARY,25681,01/09/2023,School,1,60625,41.97160604981699,-87.72464138821852,10,5
Fail,"TAQUERIA MISANTLA VER, INC.",2886356,01/09/2023,Restaurant,1,60623,41.846538888991475,-87.70495285575998,7,1
Pass,RED LOBSTER #0277,2333153,01/09/2023,Restaurant,1,60632,41.79850994776847,-87.72316542310595,11,3
Fail,WINGSTOP RESTAURANT,2823020,01/09/2023,Restaurant,1,60641,41.93710698410429,-87.72698208255794,1,0
Pass,AUSTIN DOLLAR & GROCERY,2882455,01/09/2023,Grocery Store,3,60639,41.93104020364298,-87.77519906757736,3,0
Pass,SUBWAY SANDWICH,1646134,01/09/2023,Restaurant,1,60620,41.75032238740821,-87.64418240605828,3,0
Pass,Ray,25071,01/09/2023,School,1,60637,41.792349674468525,-87.5947154417806,3,0
Fail,POPEYE'S,2489026,01/09/2023,Restaurant,1,60608,41.8353362239431,-87.66583085901608,3,2
Fail,"BURRITO ARCELIANO, INC.",2886706,01/09/2023,Restaurant,1,60618,41.953957216483,-87.71355988117966,9,3
Fail,CERMAK PRODUCE,1476657,01/09/2023,Grocery Store,1,60608,41.85216786362801,-87.66897504066361,6,2
Fail,Carver Military Academy,46381,01/09/2023,School,1,60827,NA,NA,7,2
Fail,WINGSTOP RESTAURANT,2595711,01/09/2023,Restaurant,1,60618,41.942077127035645,-87.68839242966847,6,2
Pass,SUBWAY,2522465,01/09/2023,Restaurant,1,60646,41.99644717759783,-87.78720723090356,0,0
Pass,JEWEL FOOD STORE #3176,1404,01/09/2023,Grocery Store,1,60620,41.72294121820967,-87.66286287127305,1,0
Pass,ELEPHANT & CASTLE PUB & RESTAURANT,2142599,01/09/2023,Restaurant,1,60601,41.88543167061009,-87.626119285512,1,0
Fail,CAJUN BOIL AND BAR CHICAGO,2835885,01/09/2023,Restaurant,1,60637,41.79518501605705,-87.58059777168157,7,2
Pass,EL BURRITO MEXICANO,2164154,01/09/2023,Restaurant,1,60613,41.94737034258505,-87.65335653482947,3,0
Fail,HOST INTERNATIONAL B05,34203,01/09/2023,Restaurant,1,60666,42.008536400868735,-87.91442843927047,2,1
Pass,DUNKIN DONUTS/BASKIN ROBBINS,64722,01/09/2023,Restaurant,2,60646,41.9960984214,-87.7868769104594,2,0
Pass,FILONEK'S,48472,01/09/2023,Restaurant,2,60646,41.99418952580172,-87.78468948624445,0,0
Pass,YOU'RE A COOKIE!,2808949,01/09/2023,Bakery,2,60618,41.93734968535169,-87.6976199193121,3,0
Fail,IDOF TAYLOR INC,2564809,01/09/2023,Restaurant,1,60607,41.86932926692286,-87.655326105994,6,1
Fail,STARBUCKS COFFEE  #2635,1276339,01/10/2011,Restaurant,2,60640,41.96872371055819,-87.65941408749583,10,2
Pass,Jimmy Johns,1959787,01/10/2013,Restaurant,2,60707,41.93085131518802,-87.7877556545619,0,0
Fail,LA QUINTA DE LOS REYES,2197118,01/10/2013,Restaurant,3,60630,41.96856245387149,-87.74065931463221,0,0
Pass,DASTORKON,2221173,01/10/2014,Restaurant,1,60610,41.90038778636948,-87.63781901653797,0,0
Pass,MARZ COMMUNITY BREWING CO.,2516786,01/10/2018,Restaurant,2,60609,41.82788609774376,-87.65946618804536,0,0
Pass,BACK OF THE YARDS,3152720,01/10/2020,School,1,60609,41.808384423666354,-87.67756963874196,0,0
Pass,BODEGA BAY MART,2868379,01/10/2023,Grocery Store,2,60647,41.91036370650572,-87.67791864931262,0,0
Fail,LAS ISLAS MARIAS,1095992,01/10/2023,Restaurant,1,60639,41.91399920930635,-87.74586369218258,5,1
Fail,LAS ASADAS,2069204,01/10/2023,Restaurant,1,60647,41.91887087772981,-87.68730481697142,2,0
Pass,THE GWEN,1768303,01/10/2023,Restaurant,1,60611,41.89168851736832,-87.62430717812579,3,2
Pass,JIMMY'S GYROS & GRILL,2796504,01/10/2023,Restaurant,1,60603,41.87960812540506,-87.6269991129734,1,0
Fail,SUBWAY,2121132,01/10/2023,Restaurant,1,60660,41.983546994512714,-87.65810608824604,2,2
Pass,REMEDY AT AON CENTER,2657694,01/10/2023,Restaurant,2,60601,41.8846320757672,-87.6222479910888,3,1
Fail,POPEYE'S#835,2594633,01/10/2023,Restaurant,1,60624,41.86621301898216,-87.7127816493052,15,4
Pass,THE GWEN,2717967,01/10/2023,Restaurant,3,60611,41.89168851736832,-87.62430717812579,0,0
Pass,SODEXOMAGIC AT FEDERAL RESERVE,2652337,01/10/2023,Restaurant,1,60604,41.8785382916852,-87.63241426118783,0,0
Pass,LASALLE ll LANGUAGE MAGNET SCHOOL,3132634,01/10/2023,School,1,60622,41.902908764875995,-87.67373262574593,1,0
Fail,TAQUERIA UPTOWN,19267,01/10/2023,Restaurant,1,60660,41.98373476698546,-87.65988782352466,7,1
Fail,GRESHAM ELEMENTARY SCHOOL,23451,01/10/2023,School,1,60620,41.73891334027122,-87.6450616939937,1,0
Fail,EL BARCO RESTAURANT,53569,01/10/2023,Restaurant,1,60622,41.90064069569674,-87.66727140888604,11,5
Pass,BODEGA BAY MART,2868378,01/10/2023,Grocery Store,2,60647,41.91036370650572,-87.67791864931262,1,0
Fail,VEE-VEE'S AFRICAN RESTAURANT,26898,01/10/2023,Restaurant,1,60660,41.99551563607673,-87.66058139230817,16,1
Pass,REMEDY AT AON CENTER,2881735,01/10/2023,Restaurant,3,60601,41.8846320757672,-87.6222479910888,0,0
Pass,WINDY CITY GYROS,71095,01/11/2013,Restaurant,1,60613,41.95371591865941,-87.65014628741659,0,0
Pass,PASTORAL,1820903,01/11/2013,Restaurant,1,60601,41.885618984652936,-87.62616146233678,0,0
Fail,USMANIA RESTAURANT,1047084,01/11/2018,Restaurant,1,60659,41.99766945661302,-87.68706951063783,10,3
Pass,DULCE CAFE CUBANO LLC.,2882641,01/11/2023,Restaurant,1,60632,41.793780472746235,-87.69496027657335,0,0
Fail,Beaubien Elementary School,22201,01/11/2023,School,1,60630,41.972379135874,-87.75752776008068,2,0
Pass,Jorge Prieto,26771,01/11/2023,School,1,60639,41.92131716931634,-87.76574379790944,0,0
Pass,POTBELLY SANDWICH WORKS # 100,1620704,01/11/2023,Restaurant,1,60604,41.87911455044448,-87.63213673978143,2,0
Fail,CORALIE COFFEE,2709402,01/11/2023,Restaurant,1,60604,41.87697885441959,-87.63284024683999,7,3
Pass,MAISON PARISIENNE,2886482,01/11/2023,Restaurant,1,60614,41.918032547022506,-87.65099682827481,0,0
Fail,ROLANDO TACO'S,2308821,01/11/2023,Restaurant,1,60639,41.92310285562109,-87.74641732066215,5,1
Pass,MARIST HIGH SCHOOL,3491849,01/11/2023,School,1,60655,41.68399181564351,-87.72501727575752,1,0
Fail,Hirsch Metro. (H/S),47031,01/11/2023,School,1,60619,41.75376120204399,-87.60176452344395,15,5
Pass,JARVIS GYROS,2177795,01/11/2023,Restaurant,1,60626,42.015929221479176,-87.66884761052985,0,0
Pass,STARBUCKS,34228,01/11/2023,Restaurant,2,60666,42.008536400868735,-87.91442843927047,1,0
Fail,PANDA EXPRESS #1422,1938611,01/11/2023,Restaurant,1,60643,41.67761705588747,-87.66311314586792,7,4
Pass,North Center For Handicapped,2224924,01/11/2023,School,1,60641,41.93883817000674,-87.75451981797463,0,0
Pass,DOMINO'S,2886815,01/11/2023,Restaurant,2,60610,41.90447254385478,-87.64033362435434,2,0
Fail,CHENG CHOPSTICKS,2664003,01/11/2023,Restaurant,1,60647,41.91753133022203,-87.70461978939348,1,0
Fail,KFC,2153034,01/11/2023,Restaurant,1,60641,41.9453666190531,-87.74718922087625,3,1
Pass,YUMMY THAI,2822782,01/11/2023,Restaurant,1,60607,41.869436666300544,-87.66247601980271,17,2
Pass,FAMILY DOLLAR #31994,2536669,01/11/2023,Grocery Store,3,60649,41.7573962131662,-87.58625101198423,3,0
Pass,JIMMY JOHNS,2886775,01/11/2023,Restaurant,1,60640,41.96547989696298,-87.6595077701744,1,0
Pass,SUPERMERCADO LA RAZA CORP,2767138,01/11/2023,Grocery Store,1,60609,41.80847785608591,-87.66674535125476,7,2
Fail,SEOUL TACO,2862550,01/11/2023,Restaurant,1,60622,41.90771541543215,-87.67352856806646,3,1
Pass,CLARK,1492008,01/11/2023,Grocery Store,2,60620,41.746594707551054,-87.65378117410792,1,0
Pass,CULVER'S,2575429,01/11/2023,Restaurant,1,60641,41.95326461166174,-87.75145318861135,2,0
Pass,CASA CENTRAL COMMUNITY SERVICE,60765,01/11/2023,Restaurant,1,60622,41.90598597077873,-87.69680735572291,1,0
Pass,LOST LARSON,2583423,01/11/2023,Restaurant,1,60640,41.97868454005666,-87.6684667325925,3,0
Fail,MINI CHI CHI INC.,2528322,01/11/2023,Restaurant,1,60644,41.88018311843046,-87.76131902310048,12,2
Fail,Carver Military Academy,46381,01/11/2023,School,1,60827,NA,NA,10,3
Fail,FEED,1767699,01/11/2023,Restaurant,1,60622,41.8955436507973,-87.69684454390777,4,0
Pass,"NUTS ON CLARK T5 O'HARE INTERNATIONAL AIRPORT, INC",2517018,01/11/2023,Restaurant,2,60666,42.008536400868735,-87.91442843927047,6,0
Fail,MT MINI MARKET,2882675,01/11/2023,Grocery Store,3,60637,41.76919446316037,-87.61723833780505,5,2
Fail,SHIBAM RESTAURANT,2560481,01/11/2023,Restaurant,1,60630,41.96834387397885,-87.74030968600258,15,6
Pass,"SUPERMERCADO SANCHEZ, INC.",1648074,01/11/2023,Grocery Store,1,60629,41.78649619589489,-87.69475632036104,2,0
Fail,HEARTS AND FLOUR BAKERY & CAFE,2796860,01/11/2023,Restaurant,1,60660,41.9929136599404,-87.67546577788274,3,0
Fail,HUB 51,2192977,01/11/2023,Restaurant,1,60666,42.008536400868735,-87.91442843927047,6,0
Pass,MS. EGGROLL,30984,01/11/2023,Restaurant,1,60640,41.96406154994989,-87.65462505908155,2,0
Fail,SUBWAY 10266,2198339,01/11/2023,Restaurant,1,60608,41.8370868237626,-87.66558285253427,1,0
Pass,SAVE A LOT,2830633,01/11/2023,Grocery Store,2,60628,41.69954741466738,-87.64275191512002,11,1
Fail,JOSEPH KELLMAN COMMUNITY SCHOOL,3244708,01/11/2023,School,1,60612,41.87019517842876,-87.70216172879668,3,1
Fail,ADDA INDIAN CUISINE,2762410,01/11/2023,Restaurant,1,60607,41.86944827658881,-87.66170604551814,9,2
Pass,AYA PASTRY,2560994,01/11/2023,Bakery,2,60642,41.891157477893366,-87.6603815134632,5,0
Fail,"THE VILLAGE TAP, INC.",19419,01/11/2023,Restaurant,1,60618,41.94308170715916,-87.68064405309912,6,3
Pass,SHOP-N-SAVE,2767279,01/11/2023,Grocery Store,2,60619,41.765501123078735,-87.62017368759007,22,4
Pass,MICHIGAN FOOD MART & MORE INC.,2862739,01/11/2023,Grocery Store,3,60653,41.809398169618895,-87.62275731970227,4,0
Fail,TRADITION,1678249,01/11/2023,Restaurant,1,60606,41.8848092897636,-87.63553583472795,8,2
Fail,DUNKIN',2851474,01/11/2023,Restaurant,2,60608,41.837420750459266,-87.64611479149883,3,0
Fail,W CHICAGO-CITY CENTER,2138443,01/11/2023,Restaurant,1,60603,41.879503650161986,-87.63296974156731,6,2
Fail,MK NOODLE,2797535,01/11/2023,Restaurant,1,60657,41.94257282478283,-87.67051293219696,16,3
Fail,GREEK PRIME,2786468,01/11/2023,Restaurant,1,60609,41.830619546460845,-87.64775315527635,4,3
Pass,FALCON FUEL,2559732,01/11/2023,Grocery Store,2,60620,41.75019172792476,-87.68299672155908,3,0
Fail,ARAMARK EDUCATIONAL SERVICES,2642003,01/11/2023,Restaurant,1,60827,41.65363660026574,-87.60507067062306,14,3
Pass,TACOS EL MERCADITO LLC,2876629,01/11/2023,Restaurant,1,60638,41.77809971363702,-87.7649646656073,1,1
Pass,"ROSCOE-DAMEN, CORP.",2293828,01/11/2023,Restaurant,1,60618,41.94332513800031,-87.67851443293753,2,0
Pass,"ST. IGNATIUS COLLEGE PREP, INC.",1803357,01/11/2023,School,1,60608,41.86714939253235,-87.65404495354574,2,0
Pass,"HARU RESTAURANT INC.,",2781694,01/11/2023,Restaurant,1,60647,41.91724978007896,-87.71035570565451,0,0
Fail,CHICAGO PITA KITCHEN,1875357,01/11/2023,Restaurant,1,60633,41.65491155136883,-87.55408108521225,21,2
Fail,BABA'S BUFFALO FAMOUS CRISPY CHICKEN & LEMONADE,2791475,01/11/2023,Restaurant,2,60651,41.90230474661144,-87.76065826255068,9,1
Fail,GOLDEN DRAGON CHINESE RESTAURANT,2703451,01/11/2023,Restaurant,1,60612,41.881020491797024,-87.68867106150643,4,1
Pass,SUBWAY,2314120,01/11/2023,Restaurant,1,60612,41.88107769848946,-87.68477070656029,2,0
Pass,ACADEMY OF ST. BENEDICT,5977,01/11/2023,School,1,60636,41.7843054609764,-87.66205636620833,0,0
Pass,DOLLAR GENERAL  STORE # 12061,2009491,01/12/2011,Grocery Store,3,60624,41.866254930227,-87.72704914147508,0,0
Pass,NIU,1817131,01/12/2015,Restaurant,1,60611,41.8911397362657,-87.6188063715662,0,0
Pass,ST. ANNA BAKERY,2233026,01/12/2015,Bakery,1,60616,41.853338800569915,-87.634105879639,0,0
Pass,LEVY RESTAURANTS AT UNITED CENTER,1974745,01/12/2015,Restaurant,1,60612,41.881241456803345,-87.67428253395332,0,0
Pass,LA BAGUETTE BAKERY,2374103,01/12/2015,Bakery,2,60638,41.777938446306344,-87.77328912344171,0,0
Fail,CHEESIES PUB & GRUB,2134399,01/12/2016,Restaurant,1,60657,41.94002723561704,-87.65373272685191,13,7
Pass,VANILLE PATTISSERIE,2442830,01/12/2016,Restaurant,2,60657,41.94129418083914,-87.64429200618663,0,0
Fail,CHEN'S GARDEN INC,1379914,01/12/2022,Restaurant,1,60647,41.9100178857574,-87.72447840284197,12,1
Fail,PACO'S TACOS 2,1802466,01/12/2023,Restaurant,1,60629,41.78309273393453,-87.72303137499999,4,0
Pass,PEET'S COFFEE & TEA,76517,01/12/2023,Restaurant,2,60642,41.910948762561205,-87.65315955127153,2,0
Pass,WENDY'S 11743,2535283,01/12/2023,Restaurant,1,60612,41.878944004213835,-87.68622682716615,2,0
Fail,JERRY'S SANDWICHES,2411708,01/12/2023,Restaurant,1,60625,41.96769881732379,-87.68780818484225,2,0
Fail,CHICAGO BUSY BURGER,21159,01/12/2023,Restaurant,1,60607,41.86955050162806,-87.65520491655957,7,1
Pass,MATERNITY BVM,1878495,01/12/2023,School,1,60651,41.90923371652298,-87.71905941681048,1,1
Pass,SUBWAY,2446580,01/12/2023,Restaurant,1,60615,41.80286415508425,-87.60656980894066,4,0
Fail,POTSTICKER HOUSE INC.,1474614,01/12/2023,Restaurant,1,60608,41.8369267740749,-87.64610297583852,15,2
Pass,JEWEL FOOD STORE #3454,1325,01/12/2023,Grocery Store,1,60618,41.95910043303784,-87.6823922417421,6,1
Fail,THE BALLPARK PUB,2378879,01/12/2023,Restaurant,1,60609,41.82365514125402,-87.63927207504646,4,2
Fail,BOSTON MARKET #2520,86324,01/12/2023,Restaurant,1,60657,41.9367209159054,-87.66870256330071,4,0
Pass,RIVER NORTH BISTRO,2882410,01/12/2023,Restaurant,3,60654,41.89418322482492,-87.62828580708,0,0
Pass,CHICAGO HOPE ACADEMY,1772551,01/12/2023,School,1,60612,41.870068019553386,-87.68090750663286,1,0
Pass,SWEETGREEN,2797618,01/12/2023,Restaurant,1,60615,41.799653783790305,-87.58904895260531,1,0
Fail,Nixon,24681,01/12/2023,School,1,60639,41.91959342122171,-87.73138367600806,1,1
Pass,RIVER NORTH BISTRO,2882408,01/12/2023,Restaurant,1,60654,41.89418322482492,-87.62828580708,1,0
Pass,FAMILY DOLLAR  #5392,1337574,01/12/2023,Grocery Store,3,60620,41.736044089543576,-87.65340424179776,2,0
Pass,SAZON CUBANO 2.0,1820435,01/12/2023,Restaurant,1,60647,41.92319989266042,-87.68773850836422,4,1
Fail,The Green Post,2817989,01/12/2023,Restaurant,1,60625,41.96815422075822,-87.69363812631346,13,4
Pass,CHIPOTLE MEXICAN GRILL #3430,2670644,01/12/2023,Restaurant,1,60605,41.86797982367172,-87.62598154133049,3,0
Fail,TANUKI,2220756,01/12/2023,Restaurant,1,60657,41.93648903398478,-87.65413668138018,9,1
Pass,"BAI CAFE, INC.",2078772,01/12/2023,Restaurant,1,60657,41.94360207196127,-87.66891732656353,18,3
Pass,MISKI BAKERY,2830845,01/12/2023,Bakery,1,60634,41.945630315275714,-87.77958740339405,4,0
Fail,LAO SZE CHUAN,2595620,01/12/2023,Restaurant,1,60616,41.85309845931148,-87.63460289479191,8,1
Fail,GALLISTEL LANGUAGE ACADEMY,2046685,01/12/2023,School,1,60617,41.70682231634241,-87.53513860508505,12,1
Pass,Bridge Elementary School,22321,01/12/2023,School,1,60634,41.94915062559908,-87.7987072171883,1,0
Fail,ARGO FOOD MARKET INC.,2886537,01/12/2023,Grocery Store,2,60619,41.751132728144725,-87.60771507496383,14,3
Pass,CLUB DE NUTRICION,2307751,01/12/2023,Restaurant,2,60623,41.85082727127357,-87.7053706695649,1,1
Pass,BURRITO BEACH # 8,1491413,01/12/2023,Restaurant,1,60611,41.89267129068561,-87.62257220248128,1,0
Fail,HOTEL ZACHARY,2578015,01/12/2023,Restaurant,1,60613,41.947965602336375,-87.65729854258726,8,3
Pass,LA BRASA RESTAURANT INC.,2886571,01/12/2023,Restaurant,1,60641,41.946270550939566,-87.72754493145142,0,0
Fail,RAISU JAPANESE FINE DINING,2411859,01/12/2023,Restaurant,1,60618,41.95405999724161,-87.70306843009321,6,1
Pass,TAC QUICK,32246,01/12/2023,Restaurant,1,60613,41.95437176489459,-87.65499810825563,8,1
Pass,LA MICHOACANA ICE CREAM SHOP 4,2694056,01/12/2023,Restaurant,1,60639,41.93169646610892,-87.74254645501154,3,0
Fail,Jimmy Johns,2333431,01/12/2023,Restaurant,1,60641,41.95391361936965,-87.7479109624453,6,1
Pass,CHILE TOREADO RESTAURANT,2694543,01/12/2023,Restaurant,1,60609,41.83048987325396,-87.6762068763212,2,0
Pass,CARMELITA'S TAQUERIA,1475925,01/12/2023,Restaurant,1,60640,41.9691282820749,-87.6600068867283,3,0
Pass,GOLDEN THAI,1847167,01/12/2023,Restaurant,1,60607,41.86918475349806,-87.66450967311361,5,0
Fail,YUMMY,2446443,01/12/2023,Restaurant,1,60634,41.94739919099713,-87.8069325222223,4,1
Fail,POPEYE'S #831,2594606,01/12/2023,Restaurant,1,60626,42.0193331123976,-87.68002153080553,4,1
Pass,LUCKY STRIKE LANES,2354295,01/12/2023,Restaurant,1,60611,41.891133170854566,-87.61916020704619,4,2
Fail,"CREMERIA SANTA MARIA, INC",1868311,01/12/2023,Grocery Store,1,60623,41.84454429200885,-87.71107279676545,12,3
Pass,RIVER NORTH BISTRO,2886812,01/12/2023,Restaurant,3,60654,41.89418322482492,-87.62828580708,0,0
Fail,FAIRPLAY FINER FOOD,10940,01/12/2023,Grocery Store,1,60608,41.85198383957328,-87.68578570420526,14,3
Fail,AFC SUSHI @ JEWEL OSCO #3454,2814208,01/12/2023,Grocery Store,1,60618,41.95910043303784,-87.6823922417421,4,2
Fail,KFC,2293813,01/12/2023,Restaurant,1,60617,41.70312195660828,-87.5251248470275,12,2
Pass,CO CO VIETNAMESE SANDWICHES INC.,2359449,01/12/2023,Restaurant,1,60640,41.96876506502919,-87.6700178263733,3,0
Fail,GENE'S SNACKS & SUNDRIES,2621857,01/12/2023,Restaurant,2,60605,41.874945069002806,-87.6308324955019,8,4
Pass,EL TACONAZO EXPRESS INC,2757771,01/12/2023,Restaurant,1,60647,41.91729424455668,-87.70654528949485,2,0
Fail,"CHAVELO'S TACOS, INC",2813532,01/12/2023,Restaurant,1,60632,41.80763816876787,-87.73331806200785,4,2
Pass,Nixon Annex,24682,01/12/2023,School,1,60639,41.919045189182846,-87.73113439812857,0,0
Pass,WALLY FOOD MART,2886463,01/12/2023,Grocery Store,3,60628,41.706871090394245,-87.63791381851283,6,0
Fail,CTA CHICAGO TACO  AUTHORITY,2569855,01/12/2023,Restaurant,1,60641,41.95347548577826,-87.73335423132951,6,1
Pass,RIVER NORTH BISTRO,2886896,01/12/2023,Restaurant,3,60654,41.89418322482492,-87.62828580708,0,0
Pass,ICOLDTEA,2886816,01/12/2023,Restaurant,2,60640,41.965497036127346,-87.65840280954839,3,1
Pass,"JAMISON'S SOUL FOOD, LLC",2483469,01/12/2023,Restaurant,1,60620,41.735833895808945,-87.66798786362106,1,0
Fail,SOL CAFE,2202462,01/12/2023,Restaurant,1,60626,42.01926995801616,-87.6720332966243,7,2
Pass,Burr,22471,01/12/2023,School,1,60622,41.91233061422757,-87.66864690988672,0,0
Pass,EL TEXCAL RESTAURANT,2652423,01/12/2023,Restaurant,1,60625,41.96843111302068,-87.72076005083134,6,1
Pass,Fulton,23281,01/12/2023,School,1,60609,41.79754287754963,-87.66847093405492,1,0
Fail,PONCE RESTAURANT,2423715,01/12/2023,Restaurant,1,60639,41.92428005782633,-87.73464807570147,2,1
Pass,RIVER NORTH BISTRO,2882409,01/12/2023,Restaurant,3,60654,41.89418322482492,-87.62828580708,0,0
Pass,CARNICERIA JIMENEZ INC,1693,01/13/2011,Grocery Store,1,60639,41.909925247057885,-87.73155721632436,6,0
Fail,BLANCO & NEGRO RESTAURANT,1954915,01/13/2011,Restaurant,1,60623,41.84412068159105,-87.72621334457627,12,2
Pass,BRASA ROJA RESTAURANT,2184967,01/13/2014,Restaurant,1,60641,41.946270550939566,-87.72754493145142,0,0
Fail,HANDCUT FOODS,2373525,01/13/2015,School,2,60613,41.95561823827899,-87.64561969148173,0,0
Pass,CBA,2363833,01/13/2015,Restaurant,1,60606,41.882240508067696,-87.63369062959468,0,0
Pass,CHIPOTLE MEXICAN GRILL,1044714,01/13/2016,Restaurant,1,60610,41.90383565973192,-87.6288261074516,0,0
Pass,TARGET STORE T-2613,2283226,01/13/2016,Grocery Store,2,60610,41.90376960637752,-87.64336893987576,0,0
Pass,INTERCONTINENTAL HOTEL CHICAGO,2437408,01/13/2020,Restaurant,1,60611,41.891120593048875,-87.62398870432278,1,0
Pass,Sauganash Elementary School,25211,01/13/2023,School,1,60646,NA,NA,0,0
Pass,SWEETGREEN,2732686,01/13/2023,Restaurant,1,60622,41.90872609383611,-87.67466083943248,0,0
Pass,AGLAIA COFFEE AND TEA COMPANY,2749668,01/13/2023,Restaurant,2,60642,41.89623151378124,-87.65082896270799,5,0
Fail,BIG BOSS SPICY FRIED CHICKEN,2807954,01/13/2023,Restaurant,1,60608,41.84638121795965,-87.64661301435865,22,6
Pass,BACCI CAFE AND PIZZERIA ON MILWAUKEE AVE. INC.,1444299,01/13/2023,Restaurant,1,60641,41.96055088007665,-87.7542307472157,2,0
Fail,DEMITASSE,28260,01/13/2023,Restaurant,1,60607,41.869576753505015,-87.65367577283911,3,0
Pass,RICHARDSON MIDDLE SCHOOL,3619531,01/13/2023,School,1,60629,41.783484783129275,-87.72548610626416,0,0
Pass,MASADA,2374411,01/13/2023,Restaurant,1,60647,41.921843480757985,-87.69747206860472,2,0
Fail,OPEN OUTCRY BREWING,2808516,01/13/2023,Restaurant,1,60643,41.69462309445644,-87.68139382337692,4,2
Fail,MAGNIFICO COFFEE,2818007,01/13/2023,Restaurant,2,60618,41.93688385568885,-87.71998857609762,2,1
Fail,GORDITAS LOLI'S #2,2583373,01/13/2023,Restaurant,1,60618,41.93930172570259,-87.71938935474189,4,0
Fail,I.H.O.P.,46344,01/13/2023,Restaurant,1,60641,41.95742941661818,-87.74757441604942,4,1
Pass,HOST INTERNATIONAL B05,34203,01/13/2023,Restaurant,1,60666,42.008536400868735,-87.91442843927047,2,1
Pass,TIZTAL CAFE INC.,1899152,01/13/2023,Restaurant,1,60640,41.96621962974224,-87.66678700671893,4,0
Pass,THE CONGRESS HOTEL,49248,01/13/2023,Restaurant,1,60605,41.87525982581901,-87.6243966738356,5,3
Pass,SUBWAY #65029,2476147,01/13/2023,Restaurant,1,60637,41.77992650427779,-87.60577293833379,1,0
Pass,THE BONGO ROOM,33114,01/13/2023,Restaurant,1,60622,41.908523906377425,-87.67479749884576,2,1
Fail,L + L PIZZERIA,2886848,01/13/2023,Restaurant,1,60609,41.82339003118205,-87.6722362475433,5,1
Fail,SUBWAY,1594765,01/13/2023,Restaurant,1,60612,41.86766668875998,-87.70585473185363,4,2
Pass,TRADER JOE'S,1991799,01/13/2023,Grocery Store,2,60613,41.94996117114196,-87.67567112925495,5,2
Pass,THAI PASTRY,2713340,01/13/2023,Restaurant,1,60640,41.97221355699091,-87.6596091001073,3,1
Pass,BARRACO'S PIZZA AND THE VINEYARD BANQUETS,2636205,01/13/2023,Restaurant,1,60643,41.72093007202349,-87.67509659799771,13,1
Fail,CHOP SUEY KITCHEN,2488190,01/13/2023,Restaurant,1,60644,41.880205089634494,-87.75958648612682,7,1
Fail,SBARRO'S,0,01/13/2023,Restaurant,1,60612,41.871465050498955,-87.66988444521657,5,3
Pass,Farm Super Market,2017764,01/13/2023,Grocery Store,2,60659,41.99766818403645,-87.68714725060154,0,0
Pass,MARKET FRESH FOODS,52593,01/13/2023,Grocery Store,2,60651,41.895615313545314,-87.70670532510552,1,0
Pass,SUBWAY,2003331,01/13/2023,Restaurant,1,60647,41.91729424455668,-87.70654528949485,1,0
Pass,JEWEL FOOD STORE #3170,1366,01/13/2023,Grocery Store,1,60632,41.796197591415535,-87.72339188344549,5,0
Pass,Nepalese & Indian Cuisine,2683806,01/13/2023,Restaurant,1,60647,41.92706664376851,-87.69732984409596,3,0
Pass,U OF C WOODLAWN,3676019,01/13/2023,School,1,60637,41.78044977158592,-87.59739196555952,2,0
Fail,EL NUEVO MEXICANO,1525,01/13/2023,Restaurant,1,60657,41.9351819008089,-87.64698740774581,4,2
Fail,PECK ELEMENTARY SCHOOL,24871,01/13/2023,School,1,60629,41.78792632341754,-87.71922211426183,1,1
Pass,DALEY'S RESTAURANT,2631368,01/13/2023,Restaurant,1,60637,41.78055964421131,-87.60578666065055,5,0
Fail,Holy Trinity High School,1976,01/13/2023,School,1,60642,41.903271671649186,-87.66419083256157,6,2
Pass,TAI CHI,2658576,01/13/2023,Restaurant,1,60607,41.86952788589461,-87.6565987587843,5,0
Pass,MYSTIC ROGUE,2708621,01/13/2023,Restaurant,1,60631,41.99148225930689,-87.7978116394828,4,1
Pass,SWIFT AND SON'S TAVERN,2574363,01/13/2023,Restaurant,1,60613,41.947202225469304,-87.65668775559263,0,0
Pass,THE CONGRESS HOTEL,49256,01/13/2023,Restaurant,1,60605,41.87525982581901,-87.6243966738356,14,1
Fail,LYMAN A BUDLONG ELEMENTARY,22391,01/13/2023,School,1,60625,41.97572651851171,-87.69660442713682,6,2
Pass,EL GARCIA RESTAURANT,2446848,01/13/2023,Restaurant,1,60645,42.01806959679273,-87.6900423974323,1,0
Fail,"BURRITO ARCELIANO, INC.",2886706,01/13/2023,Restaurant,1,60618,41.953957216483,-87.71355988117966,12,4
Fail,J & J FISH & CHICKEN,2432218,01/13/2023,Restaurant,2,60653,41.80979548271692,-87.59237386663331,4,1
Fail,LA BRUQUENA RESTAURANT & LOUNGE,1492868,01/13/2023,Restaurant,1,60622,41.903046386818346,-87.695535129416,7,2
Fail,HOST INTERNATIONAL INC,34210,01/13/2023,Restaurant,1,60666,42.008536400868735,-87.91442843927047,5,1
Pass,HONG HUAH RESTAURANT,15281,01/13/2023,Restaurant,1,60639,41.92395713760071,-87.77444353972444,3,1
Fail,SWANSON'S BEVERLY RITZ,2510601,01/13/2023,Restaurant,1,60655,41.70648710708992,-87.68230267534743,8,0
Fail,LAS FUENTES,12575,01/13/2023,Restaurant,1,60614,41.9290354100918,-87.64903392789199,14,2
Fail,PANES BREAD CAFE,36251,01/13/2023,Restaurant,1,60657,41.936372505860334,-87.65413313674591,10,3
Pass,JEWEL FOOD STORE #3114,1388,01/13/2023,Grocery Store,1,60655,41.70631284461492,-87.6997671192086,7,0
Pass,GINA'S CHICKEN,37407,01/13/2023,Restaurant,1,60617,41.70264615625913,-87.54067794104229,7,0
Pass,WILLIAM BROWN ELEMENTARY SCHOOL,22351,01/13/2023,School,1,60612,41.88298697688611,-87.67071878973897,1,0
Pass,PHO VIET,1868847,01/13/2023,Restaurant,1,60640,41.97270688665208,-87.6596216050827,6,0
Pass,STARBUCKS  COFFEE #63483,2797339,01/13/2023,Restaurant,2,60601,41.884592431418326,-87.62610351986139,0,0
Pass,WENDYS OLD FASHIONED HAMBURGERS,2308240,01/13/2023,Restaurant,1,60628,41.68194036015946,-87.64195936290173,9,1
Fail,PANERA BREAD #1152,2771475,01/13/2023,Restaurant,1,60614,41.92514195959395,-87.67742471570548,11,3
Pass,TAQUERIA EL TAQUIN,2437446,01/13/2023,Restaurant,1,60633,41.65341672991905,-87.54576846807524,14,2
Fail,HUA'S CHINESE CHOP SUEY EXPRESS,2147319,01/13/2023,Restaurant,1,60617,41.73019625893931,-87.5505637029876,21,1
Pass,"HG ORD TECH RETAIL, JV",2872794,01/13/2023,Grocery Store,3,60666,41.97620113902387,-87.90530912510346,1,0
Pass,HONG KONG CHINESE RESTAURANT,2289568,01/13/2023,Restaurant,1,60641,41.95173005934428,-87.74741813635666,3,0
Fail,"ORIGINAL TRIPLE CROWN RESTAURANT, INC.",1997650,01/13/2023,Restaurant,1,60616,41.852052519797155,-87.63250528112087,7,0
Fail,MCDONALDS,1443887,01/13/2023,Restaurant,2,60639,41.92366106229715,-87.76612551711685,3,2
Pass,HAPPY MART,2689023,01/13/2023,Grocery Store,1,60616,41.85205082671266,-87.63287403404587,19,1
Pass,"WOLFGANG PUCK, T1",34157,01/13/2023,Restaurant,1,60666,42.008536400868735,-87.91442843927047,3,0
Pass,THAI BOWL,54665,01/13/2023,Restaurant,1,60607,41.869366867653206,-87.65307781491383,18,1
Pass,DOMINO'S PIZZA,2185448,01/14/2014,Restaurant,2,60609,41.81522282894944,-87.66499165558884,1,0
Pass,SUBWAY,1272426,01/14/2014,Restaurant,1,60657,41.93704235000386,-87.64814829224738,2,0
Fail,BIG MIKES GYROS,2125700,01/14/2015,Restaurant,1,60619,41.75100958028992,-87.62440141614083,12,3
Fail,DENDEN RESTAURANT,1489719,01/14/2016,Restaurant,1,60626,42.00274008930502,-87.6720626214352,10,2
Pass,TACO BELL,2560341,01/14/2020,Restaurant,1,60601,41.88531449130694,-87.62641339496633,0,0
Pass,BRONZEVILLE CLASSICAL,3760532,01/14/2020,School,1,60609,41.81930389348126,-87.6266344762084,0,0
Pass,SPICY FINGERS,2615661,01/14/2022,Restaurant,1,60642,41.89597196048914,-87.6668196996518,0,0
Fail,GALWAY ARMS,49336,01/15/2013,Restaurant,1,60614,41.92660482392973,-87.64125865836216,13,3
Pass,JACKYS HOT DOGS,3775,01/15/2013,Restaurant,1,60632,41.794560965932575,-87.72305196106626,0,0
Fail,THE PASTA BOWL,2374782,01/15/2015,Restaurant,1,60622,41.910638549953624,-87.67470687923833,0,0
Fail,SNOW DRAGON,2373877,01/15/2015,Restaurant,2,60614,41.930082886392576,-87.64368253576015,0,0
Fail,MARIANO'S #8516,2326979,01/15/2015,Grocery Store,1,60614,41.92024549048859,-87.66857296261333,18,4
Pass,COLUTA'S,2374446,01/15/2016,Restaurant,1,60639,41.93158549835485,-87.75092911634358,0,0
Pass,TANUKI,2220756,01/15/2020,Restaurant,1,60657,41.93648903398478,-87.65413668138018,9,1
Pass,HORIZON CAFE,1495171,01/16/2014,Restaurant,1,60613,41.951390150873834,-87.64946946794332,0,0
Pass,PULASKI PETROLEUM INC.,1474250,01/16/2015,Grocery Store,3,60624,41.87475044702608,-87.72531369682724,0,0
Fail,2934 W DIVERSEY LLC,2671686,01/16/2020,Restaurant,3,60647,41.932178909360545,-87.70151831687924,0,0
Pass,HOME 2 SUITES CHICAGO RIVER NORTH,2704059,01/16/2020,Restaurant,2,60654,41.89493550769721,-87.63172084463201,0,0
Pass,RICKSHAW REPUBLIC,2220915,01/17/2013,Restaurant,1,60614,41.92387940553193,-87.6467837684582,0,0
Pass,LA COLOMBE,2298409,01/17/2014,Restaurant,2,60622,41.90974252720632,-87.67759198640634,0,0
Pass,WESTERN MONTROSE SHELL,2304315,01/17/2014,Grocery Store,3,60618,41.960913215361195,-87.68881742016944,0,0
Pass,WESTIN RIVER NORTH CHGO HOTEL - EMBER,55247,01/17/2023,Restaurant,1,60654,41.88807037763845,-87.62969225672218,20,2
Pass,PACO'S TACOS 2,1802466,01/17/2023,Restaurant,1,60629,41.78309273393453,-87.72303137499999,7,0
Pass,HOOTS ON DIVERSEY,2693975,01/17/2023,Restaurant,1,60639,41.93164683561585,-87.72930493180735,0,0
Pass,VETERANS MEMORIAL CAMPUS,3759938,01/17/2023,School,1,60632,41.80940021157941,-87.73099367323172,5,1
Fail,THE WORM HOLE,2021937,01/17/2023,Restaurant,2,60622,41.90837835089753,-87.67456920778488,4,1
Pass,STARBUCKS COFFEE #2510,2813111,01/17/2023,Restaurant,2,60654,41.889682960687374,-87.63712095614753,6,1
Fail,ALESSANDRO VOLTA ELEMENTARY,25681,01/17/2023,School,1,60625,41.97160604981699,-87.72464138821852,12,6
Pass,PANERA BREAD #1152,2771475,01/17/2023,Restaurant,1,60614,41.92514195959395,-87.67742471570548,12,3
Fail,WINGSTOP,2517730,01/17/2023,Restaurant,1,60621,41.77982679720496,-87.64690261797884,5,2
Pass,JIMMY JOHNS SANDWICH SHOPS,1695169,01/17/2023,Restaurant,1,60640,41.97467397723493,-87.66809696615381,1,1
Fail,GINO'S EAST OF CHICAGO,30142,01/17/2023,Restaurant,1,60605,41.87523755678771,-87.62907784469319,10,2
Pass,BOSTON MARKET #2520,86324,01/17/2023,Restaurant,1,60657,41.9367209159054,-87.66870256330071,4,0
Fail,POTBELLY SANDWICH SHOP,2418678,01/17/2023,Restaurant,1,60641,41.953489149800056,-87.73232020498648,1,0
Pass,JOSEPH KELLMAN COMMUNITY SCHOOL,3244708,01/17/2023,School,1,60612,41.87019517842876,-87.70216172879668,5,1
Pass,Harte Elementary,23561,01/17/2023,School,1,60637,41.79347459992128,-87.58686327533003,1,0
Pass,PRONTO RESIDENTIAL LLC - STREETER SERIES,2886690,01/17/2023,Grocery Store,3,60611,41.89571882183127,-87.61873143015464,0,0
Fail,Bridge Junior High School,1981286,01/17/2023,School,1,60634,41.945274592933224,-87.80089914642791,2,1
Fail,POPEYE'S,2489026,01/17/2023,Restaurant,1,60608,41.8353362239431,-87.66583085901608,6,4
Pass,Hannah G.Solomon Elementary  School,25431,01/17/2023,School,1,60659,41.99397006658641,-87.7240799059587,0,0
Pass,STEAK & TOSTADA,2791296,01/17/2023,Restaurant,1,60647,41.91773476803251,-87.68438612753275,1,0
Fail,Subway,2197093,01/17/2023,Restaurant,1,60651,41.90304577546696,-87.71888929987243,11,4
Fail,SAKURA TEPPANYAKI AND SUSHI,2064355,01/17/2023,Restaurant,1,60614,41.93285532207793,-87.64773750079577,21,10
Pass,LAS ASADAS,2069204,01/17/2023,Restaurant,1,60647,41.91887087772981,-87.68730481697142,2,0
Fail,ALCOTT HIGH SCHOOL,25281,01/17/2023,School,1,60618,41.93576105545682,-87.68052441491923,3,3
Pass,BAWARCHI ON OKALEY,2708649,01/17/2023,Restaurant,1,60645,41.99803106929147,-87.68760322515347,16,2
Pass,VEE-VEE'S AFRICAN RESTAURANT,26898,01/17/2023,Restaurant,1,60660,41.99551563607673,-87.66058139230817,31,2
Pass,EL NUEVO TACONAZO,2437850,01/17/2023,Restaurant,1,60608,41.85214284687163,-87.68528173498287,13,6
Pass,TACO BELL,2827254,01/17/2023,Restaurant,1,60659,41.9971778220804,-87.71716703291007,1,0
Fail,CHO SUN OK RESTAURANT,24882,01/17/2023,Restaurant,1,60618,41.957764213323046,-87.68145271210606,5,1
Fail,SM FACIL ENVIOS CORPORATION,2873194,01/17/2023,Grocery Store,3,60625,41.968372175290774,-87.70510382143132,5,1
Pass,LI HING INC.,2326495,01/17/2023,Restaurant,1,60634,41.938623349328445,-87.77114260357651,4,0
Fail,SHEEBA MEAT & GROCERY,2699426,01/17/2023,Grocery Store,2,60630,41.96804517534159,-87.7357496871877,7,2
Fail,SOUTH LOOP PANTRY,1965076,01/17/2023,Grocery Store,1,60616,41.858437772179165,-87.6240934145977,6,2
Pass,POTBELLY SANDWICH WORKS,2262715,01/17/2023,Restaurant,1,60659,41.98950581649717,-87.70565776952233,3,0
Pass,WESTIN RIVER NORTH CHGO HOTEL- MAIN KITCHEN,55255,01/17/2023,Restaurant,1,60654,41.88807037763845,-87.62969225672218,22,3
Pass,PRONTO RESIDENTIAL LLC - ONE SUPERIOR SERIES,2886686,01/17/2023,Grocery Store,3,60654,41.895568348702824,-87.62825186147317,0,0
Fail,PEAR CHEF,2886849,01/17/2023,Restaurant,1,60602,41.88331726083294,-87.63302428430005,2,1
Pass,ZIZI'S CAFE,2876602,01/17/2023,Restaurant,3,60657,41.93343981152229,-87.6537400474662,0,0
Fail,MELI CAFE ON DEARBORN,2294320,01/17/2023,Restaurant,1,60605,41.87556910960446,-87.62938322586831,8,2
Pass,MCDONALD'S,2797024,01/17/2023,Restaurant,2,60616,41.83095278930358,-87.62144916300736,2,0
Pass,FRANK'S DELI & GROCERY INC.,2517006,01/17/2023,Grocery Store,1,60620,41.73559440245028,-87.66954085379396,2,0
Pass,EL BARCO RESTAURANT,53569,01/17/2023,Restaurant,1,60622,41.90064069569674,-87.66727140888604,15,6
Pass,MARAVILLAS RESTAURANT,1948652,01/17/2023,Restaurant,1,60637,41.79493406966079,-87.58773625841167,7,0
Pass,UNCOOKED LLC,2709319,01/17/2023,Restaurant,2,60607,41.88594495760403,-87.65346178255953,1,0
Pass,BIG BOSS SPICY FRIED CHICKEN,2807954,01/17/2023,Restaurant,1,60608,41.84638121795965,-87.64661301435865,22,6
Pass,SOL CAFE,2202462,01/17/2023,Restaurant,1,60626,42.01926995801616,-87.6720332966243,10,3
Fail,Passages  Charter School,66191,01/17/2023,School,1,60660,41.98334408255448,-87.67115450271945,1,1
Pass,BIRRIERIA Y TAQUERIA EL ARANDAS,2500945,01/17/2023,Restaurant,1,60609,41.80839463202842,-87.675855190066585,3,1
Pass,ILLINOIS CENTER FOR REHABILITATION AND EDUCATION-R,2528928,01/17/2023,Restaurant,1,60608,41.86687083903884,-87.67581337836772,4,2
Fail,VEGGIE HOUSE,2744346,01/17/2023,Restaurant,1,60616,41.85403857313249,-87.63419681540897,9,2
Pass,CAJUN BOIL AND BAR CHICAGO,2835885,01/17/2023,Restaurant,1,60637,41.79518501605705,-87.58059777168157,11,2
Fail,PEAR CHEF,2886850,01/17/2023,Restaurant,3,60602,41.88331726083294,-87.63302428430005,0,0
Pass,JIMMY JOHNS,2767073,01/17/2023,Restaurant,1,60654,41.895062395602416,-87.62801032492992,8,3
Pass,ZIZI'S CAFE,2147679,01/17/2023,Restaurant,1,60657,41.93343981152229,-87.6537400474662,6,1
Fail,La Autentica De Guerrero Inc.,2749741,01/17/2023,Restaurant,1,60634,41.93634639171172,-87.7662738608153,4,0
Pass,LOU MALNATI'S PIZZERIA,2368244,01/17/2023,Restaurant,1,60618,41.96074324981876,-87.68354840044978,4,1
Pass,COOKING FOOLS LLC,1355251,01/17/2023,Restaurant,1,60622,41.910622805831906,-87.67576194185494,3,1
Pass,TRUMP INTERNATIONAL TOWER,2048777,01/18/2018,Restaurant,1,60611,41.889284013529334,-87.62654854794113,0,0
Pass,ROTI MODERN MEDITERRANEAN,2559603,01/18/2018,Restaurant,1,60642,41.910948762561205,-87.65315955127153,0,0
Fail,GHAREEB NAWAZ RESTAURANT,2423912,01/18/2023,Restaurant,1,60659,41.99798375025185,-87.68142044788961,3,1
Pass,ALWAYS THAI,2059426,01/18/2023,Restaurant,1,60613,41.954093028764525,-87.67519473163885,1,0
Fail,AFRICAN SUPERMARKET & LIQUOR,28149,01/18/2023,Grocery Store,2,60624,41.880779974868965,-87.7303060140944,3,0
Pass,LOS ALTOS DE LA SIERRA,2845828,01/18/2023,Restaurant,1,60634,41.945644781746616,-87.778210263651,3,0
Fail,SEAFOOD JUNCTION,2835293,01/18/2023,Restaurant,1,60609,41.796234875219376,-87.63040492438661,4,2
Pass,LA PATISSERIE P,39871,01/18/2023,Bakery,1,60640,41.97339412511678,-87.65695652645591,6,1
Fail,MR. GEES,2269677,01/18/2023,Restaurant,1,60639,41.92446101862449,-87.73808139269306,1,0
Fail,EZ SHAWARMA LLC,2817236,01/18/2023,Restaurant,1,60656,41.96415807203445,-87.83683754944124,7,2
Fail,BERNARD MOOS ELEMENTARY SCHOOL,24551,01/18/2023,School,1,60647,41.912531098361065,-87.6969054465616,3,1
Pass,MAXWELL STREET HARRISON,2247280,01/18/2023,Restaurant,2,60624,41.87340464534467,-87.72039962829741,5,1
Fail,PRONTO RESIDENTIAL LLC - PARAGON SERIES,2886693,01/18/2023,Grocery Store,3,60605,41.8649995334912,-87.62424300551122,2,2
Pass,MORDECAI BROWN,2575405,01/18/2023,Restaurant,1,60613,41.94801635212034,-87.65733966838366,3,0
Pass,CHENG CHOPSTICKS,2664003,01/18/2023,Restaurant,1,60647,41.91753133022203,-87.70461978939348,1,0
Pass,KABOBI,2313793,01/18/2023,Restaurant,1,60625,41.96807735259296,-87.70860691495594,9,1
Pass,CHICAGO PITA KITCHEN,1875357,01/18/2023,Restaurant,1,60633,41.65491155136883,-87.55408108521225,33,2
Pass,"THE VILLAGE TAP, INC.",19419,01/18/2023,Restaurant,1,60618,41.94308170715916,-87.68064405309912,6,3
Pass,RICK'S CABARET,2776314,01/18/2023,Restaurant,1,60622,41.90905475445697,-87.65242220436633,0,0
Fail,GALLISTEL LANGUAGE ACADEMY,2046685,01/18/2023,School,1,60617,41.70682231634241,-87.53513860508505,23,2
Fail,SUBWAY,2202890,01/18/2023,Restaurant,1,60601,41.88539004666972,-87.61898671163952,4,3
Pass,PEAR CHEF,2886849,01/18/2023,Restaurant,1,60602,41.88331726083294,-87.63302428430005,4,1
Pass,ADDA INDIAN CUISINE,2762410,01/18/2023,Restaurant,1,60607,41.86944827658881,-87.66170604551814,9,2
Pass,DUNKIN',2851474,01/18/2023,Restaurant,2,60608,41.837420750459266,-87.64611479149883,3,0
Fail,Chartwells @ DePaul University,1166643,01/18/2023,Restaurant,1,60604,41.878110156499886,-87.62753454596945,2,0
Fail,MACY'S,61206,01/18/2023,Restaurant,1,60602,41.88347312241303,-87.62772975002918,7,1
Fail,SEOUL TACO,2862550,01/18/2023,Restaurant,1,60622,41.90771541543215,-87.67352856806646,5,2
Fail,THE BUDLONG HOT CHICKEN,2516815,01/18/2023,Restaurant,1,60625,41.9654991094368,-87.68866018713253,2,1
Fail,ALEBRIJES CAFE,2694855,01/18/2023,Restaurant,1,60625,41.96827375769163,-87.7150390070548,2,1
Pass,ARTHUR CANTY ELEMENTARY,22541,01/18/2023,School,1,60634,41.94799244642824,-87.8293318975799,2,0
Fail,SOUPBOX,42172,01/18/2023,Restaurant,1,60657,41.936191258669915,-87.64411926480847,11,3
Pass,SUBWAY,1985307,01/18/2023,Restaurant,1,60609,41.81698453270526,-87.6313645580596,3,1
Pass,MT MINI MARKET,2882675,01/18/2023,Grocery Store,3,60637,41.76919446316037,-87.61723833780505,5,2
Pass,BAR SIENA,2308791,01/18/2023,Restaurant,1,60607,41.884496686293886,-87.64866550824529,10,2
Pass,RABBIT HOLE,1514802,01/18/2023,Restaurant,1,60610,41.90415070255982,-87.63463643971943,6,0
Fail,PAK SWEETS INC.,2812873,01/18/2023,Restaurant,1,60659,41.997861005185875,-87.68860508498791,3,0
Pass,JOPLIN ELEMENTARY SCHOOL,22281,01/18/2023,School,1,60620,41.749340824311474,-87.66932902916794,1,0
Fail,GALLERY CAFE,2713470,01/18/2023,Restaurant,2,60642,41.8951328475832,-87.653907100256,8,2
Pass,SUBWAY SANDWICH,1922096,01/18/2023,Restaurant,1,60620,41.74953361548895,-87.68297971058266,2,0
Pass,HOT WOKS COOL SUSHI,2032648,01/18/2023,Restaurant,1,60618,41.943312712450826,-87.67972196894465,6,1
Pass,BARTON ELEMENTARY SCHOOL,22151,01/18/2023,School,1,60620,41.75421962168018,-87.67096452829065,2,0
Pass,PEAR CHEF,2886850,01/18/2023,Restaurant,3,60602,41.88331726083294,-87.63302428430005,0,0
Pass,Lloyd,24221,01/18/2023,School,1,60639,41.91883022004693,-87.74847860787013,0,0
Fail,DEPASADA RESTAURANT,1818916,01/18/2023,Restaurant,1,60607,41.86917945744238,-87.66482775939852,5,1
Pass,MADISON 4102,2845057,01/18/2023,Grocery Store,3,60624,41.880803325267415,-87.72831805265798,3,0
Pass,"WENDY'S PROPERTIES, LLC",2405949,01/18/2023,Restaurant,1,60614,41.92374168242107,-87.66831941060705,1,0
Pass,FADO IRISH PUB,53945,01/18/2023,Restaurant,1,60610,41.891735020379166,-87.63120168879202,6,1
Fail,A TAVOLA,45044,01/18/2023,Restaurant,1,60622,41.89594582031756,-87.68145004376318,6,2
Pass,EL RINCON DE FABIO,2886319,01/18/2023,Restaurant,1,60640,41.97342006256912,-87.65508564145216,3,0
Pass,A JUST HARVEST,1226532,01/18/2023,Restaurant,1,60626,42.02080847990217,-87.67293354942761,0,0
Fail,SAVE A LOT,2886866,01/18/2023,Grocery Store,2,60621,41.77984000249918,-87.64613076000079,14,3
Pass,JUST SALAD,2378922,01/18/2023,Restaurant,1,60604,41.878334980526645,-87.62696157690942,3,0
Pass,ROSE MARY,2766613,01/18/2023,Restaurant,1,60607,41.88686437354237,-87.65106751780091,4,1
Pass,CHURRO FACTORY,2141280,01/18/2023,Restaurant,2,60647,41.91711739401661,-87.72144501827158,4,0
Fail,GOLDEN DRAGON CHINESE RESTAURANT,2703451,01/18/2023,Restaurant,1,60612,41.881020491797024,-87.68867106150643,11,4
Pass,EL BURRITO AMIGO,1576638,01/18/2023,Restaurant,1,60639,41.917296724880934,-87.75726362208049,2,0
Pass,CHIU QUON BAKERY,2501165,01/18/2023,Bakery,1,60640,41.97314890310981,-87.65887591343079,7,0
Pass,THE BALLPARK PUB,2378879,01/18/2023,Restaurant,1,60609,41.82365514125402,-87.63927207504646,4,2
Fail,DOLLAR TREE STORE # 642,2516614,01/18/2023,Grocery Store,3,60643,41.72482906246921,-87.68203867164338,11,3
Pass,CHINA DOLL,13712,01/18/2023,Restaurant,1,60610,41.90524022739683,-87.63467549842754,8,0
Pass,NORTH BUENA MARKET,2271173,01/18/2023,Restaurant,2,60613,41.95848356330247,-87.65321448916944,0,0
Fail,"TUHAMA, INC",2036278,01/19/2011,Grocery Store,2,60644,41.886554498523715,-87.76523430291367,0,0
Pass,KFC,189348,01/19/2016,Restaurant,1,60659,41.990214675792274,-87.71383607731778,0,0
Fail,RESTAURANT EL ASADOR II,2179622,01/19/2022,Restaurant,1,60632,41.80772111499567,-87.72682517366316,16,1
Pass,SAKURA TEPPANYAKI AND SUSHI,2064355,01/19/2023,Restaurant,1,60614,41.93285532207793,-87.64773750079577,21,10
Pass,LAO SZE CHUAN,2595620,01/19/2023,Restaurant,1,60616,41.85309845931148,-87.63460289479191,9,1
Pass,BALE SANDWICH AND BAKERY,2021688,01/19/2023,Restaurant,1,60640,41.973214590632,-87.65992980737389,3,0
Pass,NAPLES PIZZA,2446916,01/19/2023,Restaurant,1,60609,41.815603204509344,-87.68477272360894,3,0
Fail,FRESH MARKET PLACE #3,2708661,01/19/2023,Grocery Store,1,60639,41.92427271358551,-87.75211503765784,9,2
Pass,ANGELAS BURRITO STYLE,2809022,01/19/2023,Restaurant,1,60614,41.92918048191846,-87.6427689778928,3,0
Fail,MR. GREEK GYROS,58084,01/19/2023,Restaurant,1,60661,41.878102403055955,-87.64739070558905,8,1
Fail,JERKY JERK RARE,2684305,01/19/2023,Restaurant,1,60612,41.86890766821779,-87.683275390726,5,1
Pass,POPEYE'S #831,2594606,01/19/2023,Restaurant,1,60626,42.0193331123976,-87.68002153080553,5,1
Pass,PARK TO SHOP SUPERMARKET CANAL,2684483,01/19/2023,Grocery Store,1,60616,41.85665717815976,-87.63875334531697,8,2
Pass,LUTNIA RESTAURANT,72501,01/19/2023,Restaurant,1,60641,41.93869781741385,-87.76541113658556,1,0
Fail,POPEYE'S,2489026,01/19/2023,Restaurant,1,60608,41.8353362239431,-87.66583085901608,9,5
Fail,CRISP,1868619,01/19/2023,Restaurant,1,60657,41.93610815174804,-87.64441137564677,7,1
Fail,"TAQUERIA MISANTLA VER, INC.",2886356,01/19/2023,Restaurant,1,60623,41.846538888991475,-87.70495285575998,8,1
Fail,FRANCESCA'S ON CHESTNUT,2013184,01/19/2023,Restaurant,1,60611,41.89853034425216,-87.62177740924473,2,1
Fail,BOGAN HIGH SCHOOL,46041,01/19/2023,School,1,60652,41.74934817042143,-87.7210967274063,3,1
Fail,"WINGS OVER HARRISON, LLC/WINGSTOP RESTAURANTS, INC",2517705,01/19/2023,Restaurant,1,60605,41.87448905670627,-87.6273652953713,8,3
Pass,VIRTUE,2241029,01/19/2023,Restaurant,1,60615,41.7996512604028,-87.58940328555822,3,1
Pass,SPERTUS INSTITUTE FOR JEWISH LEARNING AND LEADERSH,2549798,01/19/2023,Restaurant,2,60605,41.8741738481537,-87.62437357417441,0,0
Fail,SAGE DINING SERVICES,2442839,01/19/2023,School,1,60613,41.950576516362005,-87.64906762223224,5,3
Pass,TACO MAYA,2863048,01/19/2023,Restaurant,1,60657,41.937633456808875,-87.66844084780955,1,0
Fail,SUBWAY,1719251,01/19/2023,Restaurant,1,60628,41.705296492547895,-87.64293095094614,7,1
Fail,CHICAGO'S PIZZA,1696176,01/19/2023,Restaurant,1,60641,41.95359543105369,-87.74147723471926,4,1
Fail,IMA'S,2857110,01/19/2023,Restaurant,1,60630,41.97234928256036,-87.74682508578468,3,1
Fail,JOY YEE PLUS,2008463,01/19/2023,Restaurant,1,60616,41.85362260604301,-87.63505989413537,5,1
Pass,SUBWAY 10266,2198339,01/19/2023,Restaurant,1,60608,41.8370868237626,-87.66558285253427,1,0
Pass,POTSTICKER HOUSE INC.,1474614,01/19/2023,Restaurant,1,60608,41.8369267740749,-87.64610297583852,17,2
Pass,WINDY CITY CAFE,86616,01/19/2023,Restaurant,1,60642,41.89638429492164,-87.65492651788387,8,0
Pass,SPERTUS INSTITUTE FOR JEWISH LEARNING AND LEADERSH,2549794,01/19/2023,Restaurant,2,60605,41.8741738481537,-87.62437357417441,0,0
Pass,EDGEWATER PRODUCE,16765,01/19/2023,Grocery Store,1,60640,41.98197137699897,-87.6683210322541,4,0
Pass,SUBWAY,1964427,01/19/2023,Restaurant,1,60615,41.79962235142029,-87.59172040988271,2,0
Fail,KFC,2293813,01/19/2023,Restaurant,1,60617,41.70312195660828,-87.5251248470275,18,2
Pass,MINI CHI CHI INC.,2528322,01/19/2023,Restaurant,1,60644,41.88018311843046,-87.76131902310048,20,2
Pass,VOLO RESTAURANT,1542917,01/19/2023,Restaurant,1,60618,41.94332263059663,-87.67884909733532,2,1
Pass,KARAVITES REST INC,11136,01/19/2023,Restaurant,2,60640,41.97628305591404,-87.65514776882976,2,0
Fail,STEVE'S LOUNGE,833,01/19/2023,Restaurant,1,60633,41.655416650555715,-87.54729079495272,26,1
Fail,"RAISING CANE'S RESTAURANTS, LLC",2776015,01/19/2023,Restaurant,1,60613,41.949010883298726,-87.65814287476813,5,2
Fail,"YOYO FOOD MART, INC.",2423649,01/19/2023,Grocery Store,2,60612,41.87368288464604,-87.69622204230475,9,3
Fail,CHURCH'S CHICKEN # 1054,1273277,01/19/2023,Restaurant,2,60609,41.808662601878325,-87.67025444015965,4,1
Fail,SIRI INDIAN RESTAURANT,2602169,01/19/2023,Restaurant,1,60607,41.86939628798951,-87.66499334444555,10,3
Fail,THE GODDESS AND GROCER,2196728,01/19/2023,Restaurant,1,60647,41.91197123079704,-87.67735193570363,5,1
Fail,MI CUADRA RESTAURANT,2887002,01/19/2023,Restaurant,1,60639,41.92226642324232,-87.78461492064997,2,1
Pass,PANDA EXPRESS RESTAURANT #2685,2446269,01/19/2023,Restaurant,1,60638,41.77469454158943,-87.74201330080811,2,0
Fail,Osteria Via Stato,1547695,01/19/2023,Restaurant,1,60610,41.89306252445921,-87.62826528761398,7,2
Fail,"FIXIN' FRANKS, LLC",2802557,01/19/2023,Restaurant,2,60639,41.91571014555266,-87.74590775451382,2,2
Fail,WINGSTOP RESTAURANT,2823020,01/19/2023,Restaurant,1,60641,41.93710698410429,-87.72698208255794,2,0
Pass,SUBWAY,2563501,01/19/2023,Restaurant,1,60638,41.77651160105122,-87.74237234140492,4,1
Pass,"CREMERIA SANTA MARIA, INC",1868311,01/19/2023,Grocery Store,1,60623,41.84454429200885,-87.71107279676545,14,3
Pass,GENE'S SNACKS & SUNDRIES,2621857,01/19/2023,Restaurant,2,60605,41.874945069002806,-87.6308324955019,9,4
Pass,CHAVEZ MULTICULTURAL,25151,01/19/2023,School,1,60609,41.807155141082866,-87.66600054557253,1,0
Pass,SUBWAY 33077,2887069,01/19/2023,Restaurant,1,60628,41.705296492547895,-87.64293095094614,5,1
Pass,SUBWAY SANDWICHES AND SALAD,2108309,01/19/2023,Restaurant,1,60623,41.85166637301674,-87.72413065542635,3,0
Fail,GRAND CITGO/ MR. SUB / DUNKIN DONUTS,1330101,01/19/2023,Restaurant,2,60642,41.89086776499436,-87.66697975929355,5,1
Fail,SWEET HONEY TEA,2570197,01/19/2023,Restaurant,1,60652,41.75466012439374,-87.74138475860521,8,2
Pass,TACO BURRITO KING,2059673,01/19/2023,Restaurant,1,60638,41.790043968551885,-87.80130039473886,9,1
Fail,TUMANS,1273473,01/19/2023,Restaurant,1,60622,41.8957195700408,-87.68182311956286,8,4
Pass,LA BURDICK CHICAGO LLC,2551679,01/19/2023,Restaurant,2,60654,41.89280026405856,-87.62796411945727,4,0
Pass,RESTAURANT  EL ASADOR II,2037179,01/20/2011,Restaurant,1,60623,41.84435644599689,-87.72520458577316,8,0
Pass,DUELIRE VINO & CUCINA,2064340,01/20/2011,Restaurant,1,60625,41.9637114633289,-87.68550577558725,0,0
Fail,"TUHAMA, INC",2036278,01/20/2011,Grocery Store,2,60644,41.886554498523715,-87.76523430291367,11,4
Fail,"BABAS FISH & CHICKEN, INC",2841390,01/20/2023,Restaurant,1,60621,41.779784072879195,-87.64970295329033,12,3
Fail,FISHERMANS ISLAND,2758303,01/20/2023,Restaurant,1,60649,41.77329289585066,-87.58644236831432,12,1
Pass,JB'S DELI INC.,1332670,01/20/2023,Restaurant,1,60640,41.98172336588329,-87.66828765522929,2,1
Pass,SWEETGREEN,2703724,01/20/2023,Restaurant,1,60614,41.91098173973453,-87.65120930801842,2,0
Pass,DUNKIN DONUTS,1913868,01/20/2023,Restaurant,2,60617,41.73536134404252,-87.58501433108263,8,0
Fail,POPEYE'S #862,2738644,01/20/2023,Restaurant,1,60653,41.80965253314558,-87.60574752734975,7,2
Fail,CERMAK PRODUCE #5 LTD,1649774,01/20/2023,Grocery Store,1,60608,41.83134990007708,-87.67584784785943,12,4
Pass,"SUSHI AVENUE, INC.",2517806,01/20/2023,Grocery Store,1,60657,41.93974461573451,-87.6685161010639,0,0
Pass,APPLEBEE'S NEIGHBORHOOD GRILL & BAR,2269750,01/20/2023,Restaurant,1,60707,41.92372832371481,-87.79277661387391,0,0
Pass,HUA'S CHINESE CHOP SUEY EXPRESS,2147319,01/20/2023,Restaurant,1,60617,41.73019625893931,-87.5505637029876,37,1
Pass,CUCKOO,2827652,01/20/2023,Restaurant,1,60640,41.97564877244971,-87.66821133005381,3,1
Pass,S & T PROVISION CO.,12173,01/20/2023,Grocery Store,1,60655,41.691445910285765,-87.71567310388504,2,0
Pass,SUBWAY,2621567,01/20/2023,Restaurant,1,60609,41.815329857960506,-87.66528799042858,2,1
Pass,SWANSON'S BEVERLY RITZ,2510601,01/20/2023,Restaurant,1,60655,41.70648710708992,-87.68230267534743,9,0
Fail,SHIBAM RESTAURANT,2560481,01/20/2023,Restaurant,1,60630,41.96834387397885,-87.74030968600258,22,10
Pass,FRANNIE'S CAFE,2887032,01/20/2023,Restaurant,1,60605,41.87225870806733,-87.62609460974379,0,0
Fail,7-ELEVEN,1194944,01/20/2023,Grocery Store,2,60614,41.930152639961186,-87.64339327641201,2,1
Pass,PATIO RESTAURANT,8042,01/20/2023,Restaurant,1,60607,41.8691886370389,-87.66427213008203,5,1
Pass,EZ SHAWARMA LLC,2817236,01/20/2023,Restaurant,1,60656,41.96415807203445,-87.83683754944124,11,2
Pass,Bridge Junior High School,1981286,01/20/2023,School,1,60634,41.945274592933224,-87.80089914642791,2,1
Fail,GYURO RAMEN LLC,2831005,01/20/2023,Restaurant,1,60607,41.88514498935212,-87.65431536717279,3,1
Fail,CHENGDU IMPRESSION SICHUAN CUISINE,2817304,01/20/2023,Restaurant,1,60622,41.905200085347865,-87.66957875405194,12,3
Fail,PITA PITA MEDITERRANEAN GRILL,2841290,01/20/2023,Restaurant,1,60612,41.87309735332711,-87.67745494311458,5,3
Pass,Food 4 Less #570,1928152,01/20/2023,Grocery Store,1,60620,41.736380045588184,-87.62750921902564,3,0
Pass,PROTEIN BAR,2304460,01/20/2023,Restaurant,1,60614,41.91655029829402,-87.6571654806545,4,0
Pass,YUMMY,2446443,01/20/2023,Restaurant,1,60634,41.94739919099713,-87.8069325222223,4,1
Pass,CREED ON LAKE,2688961,01/20/2023,Restaurant,1,60612,41.88434005711101,-87.69668734719967,1,0
Fail,POMPEI BAKERY,16411,01/20/2023,Restaurant,1,60607,41.86917024255043,-87.66538446635471,4,1
Fail,JJ FISH,2511352,01/20/2023,Restaurant,2,60612,41.875484228979744,-87.70582210007383,6,1
Fail,SILVER'S SEAFOOD RESTAURANT,1144034,01/20/2023,Restaurant,1,60640,41.96989464893081,-87.65954702205664,8,0
Fail,LUSH WINE & SPIRITS,2008711,01/20/2023,Restaurant,1,60642,41.89625011016584,-87.66295410715367,10,2
Fail,STAR LIGHT FOOD MARKET,1874058,01/20/2023,Grocery Store,1,60616,41.852052519797155,-87.63250528112087,10,1
Fail,BURGER KING #10345,2368801,01/20/2023,Restaurant,2,60608,41.83660842037554,-87.66557057083158,1,0
Pass,CASA HERNANDEZ,1047126,01/20/2023,Grocery Store,1,60626,42.00889670936706,-87.67331123054235,0,0
Fail,THE UNIT,2021618,01/20/2023,Grocery Store,2,60649,41.75892231743733,-87.56287603913708,5,2
Fail,Sayre Language Acad.,29271,01/20/2023,School,1,60707,41.91412360237105,-87.79875666766955,1,1
Pass,ALEXANDER GRAHAM BELL ELEM.,1878462,01/20/2023,School,1,60618,41.94952794711779,-87.68605495615246,3,0
Pass,PANDA EXPRESS #2522,2419040,01/20/2023,Restaurant,1,60601,41.885353703982936,-87.62641328540737,1,0
Pass,90 MILES CUBAN CAFE,1975927,01/20/2023,Restaurant,1,60647,41.91764973068125,-87.69145787418307,6,1
Pass,"KEDZIE FOOD MART, INC.",2670708,01/20/2023,Grocery Store,1,60612,41.87144759917631,-87.70569166240126,3,0
Pass,Beaubien Elementary School,22201,01/20/2023,School,1,60630,41.972379135874,-87.75752776008068,2,0
Pass,SUBWAY,1739186,01/20/2023,Restaurant,1,60620,41.73637382027632,-87.62723156456728,1,0
Pass,AVONDALE TAP,2368771,01/20/2023,Restaurant,1,60618,41.939307518988336,-87.71873540202452,2,0
Pass,PALESTINA PIZZA LLC,2873366,01/20/2023,Restaurant,1,60626,42.002628232187895,-87.67232835129398,7,0
Pass,Josephine Locke Elementary School,24231,01/20/2023,School,1,60634,41.931763005765575,-87.79564085495707,5,0
Fail,Hirsch Metro. (H/S),47031,01/20/2023,School,1,60619,41.75376120204399,-87.60176452344395,18,5
Fail,TUMANS,1273473,01/20/2023,Restaurant,1,60622,41.8957195700408,-87.68182311956286,12,5
Fail,POPEYES CHICKEN & BISCUITS,2822854,01/20/2023,Restaurant,1,60639,41.90951865138598,-87.7630187998563,7,1
Pass,Subway Restaurant,2197148,01/20/2023,Restaurant,1,60651,41.89481469929343,-87.75630215901684,4,0
Pass,GORDITAS LOLI'S #2,2583373,01/20/2023,Restaurant,1,60618,41.93930172570259,-87.71938935474189,6,0
Fail,SMART FOOD & MART INC,2808722,01/20/2023,Grocery Store,1,60651,41.902330170444024,-87.75831293619554,18,6
Pass,"ORIGINAL TRIPLE CROWN RESTAURANT, INC.",1997650,01/20/2023,Restaurant,1,60616,41.852052519797155,-87.63250528112087,9,0
Fail,ESTRELLA BLANCA NIGHT CLUB,2745149,01/20/2023,Restaurant,2,60641,41.93666807129704,-87.74665459887673,10,2
Pass,The Green Post,2817989,01/20/2023,Restaurant,1,60625,41.96815422075822,-87.69363812631346,16,4
Fail,Barry,22141,01/20/2023,School,1,60641,41.9325111830202,-87.73942513693042,1,1
Pass,MILAN'S RESTAURANT & BAR,1903556,01/20/2023,Restaurant,1,60618,41.94103960949827,-87.72605899436533,3,1
Fail,MEZCALA,2808461,01/20/2023,Restaurant,1,60647,41.93196913588585,-87.70013311819625,4,0
Pass,TACOS LOTERIA,2709168,01/20/2023,Restaurant,1,60647,41.917238212892286,-87.71141424342281,1,0
Fail,"SUNRISE BREAKFAST & LUNCH RESTAURANT, INC.",2626697,01/20/2023,Restaurant,1,60655,41.69914649461559,-87.72051218013883,13,2
Pass,WHOLE FOODS MARKET,2488666,01/20/2023,Grocery Store,1,60657,41.93974461573451,-87.6685161010639,3,1
Pass,LA FIESTA RESTAURANT,41725,01/20/2023,Restaurant,1,60655,41.691399886046646,-87.70464634367544,6,0
Fail,PANES BREAD CAFE,36251,01/20/2023,Restaurant,1,60657,41.936372505860334,-87.65413313674591,11,4
Pass,O'HARE GASLIGHT CLUB,43114,01/21/2014,Restaurant,1,60666,NA,NA,0,0
Pass,SHARKS FISH & CHICKEN,2374648,01/21/2015,Restaurant,2,60628,41.68601702970069,-87.62097609686657,0,0
Pass,7-ELEVEN #33725,1299593,01/21/2016,Grocery Store,2,60611,41.89245180138692,-87.62256644896387,0,0
Pass,EAT AND RUN  NFP,1986439,01/21/2016,Restaurant,1,60620,41.735629164499365,-87.66684642780346,1,0
Pass,"WENDY'S PROPERTIES, LLC",2405954,01/21/2016,Restaurant,1,60641,41.93915237354105,-87.73125116042982,0,0
Pass,MCDONALDS,1443878,01/22/2013,Restaurant,2,60660,41.99549427944373,-87.6602863708148,0,0
Fail,PITA PIT,2374030,01/22/2015,Restaurant,1,60626,42.0017987908865,-87.66090125470285,0,0
Pass,"CARNICERIA LEON GUANAJUATO, INC.",1821637,01/22/2015,Grocery Store,1,60639,41.9169598551884,-87.7339453364064,0,0
Pass,CERES CAFE,18237,01/23/2013,Restaurant,1,60604,41.878025655260835,-87.63206228626693,0,0
Pass,LEE WING WAH,2202689,01/23/2013,Restaurant,1,60616,41.85372213502968,-87.6348528729056,0,0
Pass,DELI & MORE,2341717,01/23/2015,Grocery Store,1,60657,41.93304198721907,-87.63802271094978,0,0
Fail,SEE THRU CHINESE KITCHEN,1245305,01/23/2020,Restaurant,1,60619,41.742264630727,-87.60483675201563,15,4
Fail,BEAT KITCHEN,1694767,01/23/2020,Restaurant,1,60618,41.93965193153802,-87.6809032053269,23,5
Pass,PUBLICAN QUALITY BREAD,2835590,01/23/2023,Bakery,1,60622,41.89079750286754,-87.67179544935355,0,0
Pass,TACO MAYA,2863047,01/23/2023,Restaurant,1,60657,41.937633456808875,-87.66844084780955,0,0
Fail,CAFE ISTANBUL,2601247,01/23/2023,Restaurant,1,60622,41.903289141646646,-87.67791409556975,14,5
Pass,Spaulding/Hope Academy,63031,01/23/2023,School,1,60612,41.88338943530201,-87.66807949279023,1,0
Pass,HOST INTERNATIONAL INC,34210,01/23/2023,Restaurant,1,60666,42.008536400868735,-87.91442843927047,6,1
Pass,MOSES BUTCHER SHOP,2158051,01/23/2023,Grocery Store,1,60651,41.90216644210144,-87.75318234870979,8,0
Fail,CHICAGO PHILLY STOP,2391595,01/23/2023,Restaurant,1,60612,41.88543498614326,-87.66708805526099,6,2
Pass,MARIO'S BUTCHER SHOP,2109251,01/23/2023,Grocery Store,2,60644,41.88004498075895,-87.77049337933958,16,1
Pass,LO'S CHINA KITCHEN INC.,2492239,01/23/2023,Restaurant,1,60618,41.95408331771469,-87.69830277007019,3,0
Pass,ROYAL SONESTA CHICAGO AND HOYT'S AMERICAN TAVERN,2698756,01/23/2023,Restaurant,1,60601,41.88775652273528,-87.62551819161445,4,0
Pass,ANTONIA PANTOJA H.S.,70228,01/23/2023,School,2,60641,41.93792920397516,-87.7270034809162,0,0
Pass,MI CUADRA RESTAURANT,2887002,01/23/2023,Restaurant,1,60639,41.92226642324232,-87.78461492064997,3,1
Fail,COUSCOUS RESTARURANT,1140774,01/23/2023,Restaurant,1,60607,41.86920031338893,-87.66347266172151,6,0
Fail,STEAK & EGGER,13520,01/23/2023,Restaurant,1,60608,41.852608269755734,-87.65596319826747,3,2
Pass,FREDDIES,2262795,01/23/2023,Restaurant,1,60616,41.83796578686669,-87.64390672735786,4,0
Fail,HOT SEAFOOD MARKET INC.,2840868,01/23/2023,Restaurant,1,60619,41.72251869461573,-87.60463680899302,12,2
Fail,CHECKERS/ RALLY'S,2704237,01/23/2023,Restaurant,1,60628,41.685458811028944,-87.64201677375817,5,1
Fail,"Garvey, M.",24951,01/23/2023,School,1,60643,41.706595595144904,-87.64754034240696,10,1
Pass,"WARD, JAMES",25751,01/23/2023,School,1,60616,41.84395162027452,-87.63531815399789,2,1
Fail,D'AGOSTINOS PIZZA,2516916,01/23/2023,Restaurant,1,60613,41.94696420186995,-87.6636616004036,11,2
Pass,TE'AMO BOBA BAR,2882299,01/23/2023,Restaurant,2,60611,41.897740856252504,-87.62396131598219,5,0
Pass,ONE STOP FOOD & LIQUOR STORE,1094,01/23/2023,Grocery Store,2,60653,41.816865148052045,-87.59868884416672,4,1
Pass,DOLLOP DINER,2507003,01/23/2023,Restaurant,1,60640,41.97424235878787,-87.66834139863518,2,0
Fail,HONEY BEAR RESTAURANT,2699440,01/23/2023,Restaurant,1,60626,42.01012437485032,-87.67436989898064,8,0
Fail,TED'S,2863478,01/23/2023,Restaurant,1,60620,41.73604613500343,-87.65328285521976,11,3
Pass,REPLAY/ELIXIR,2385227,01/23/2023,Restaurant,1,60640,41.979729777066666,-87.66841902665125,2,0
Pass,HUB 51,2192977,01/23/2023,Restaurant,1,60666,42.008536400868735,-87.91442843927047,7,0
Pass,THREE BROTHERS,2818243,01/23/2023,Grocery Store,1,60612,41.87363514754481,-87.70086223773322,3,0
Fail,GREEN GROCER CHICAGO,1873405,01/23/2023,Grocery Store,2,60642,41.89113617756349,-87.66242942830333,6,1
Fail,BABAS 63 & DAMEN,2483654,01/23/2023,Restaurant,1,60636,41.7794212392915,-87.67424150977281,7,2
Fail,TEA NINJA,2684533,01/23/2023,Restaurant,2,60657,41.93878358216897,-87.64420916879916,13,4
Pass,"TONY'S TAMALES, LLC",2873515,01/23/2023,Restaurant,1,60636,41.78994534652036,-87.68407712139212,1,0
Pass,KFC,2293813,01/23/2023,Restaurant,1,60617,41.70312195660828,-87.5251248470275,18,2
Fail,WILLIAM G. HIBBARD ELEMENTARY SCHOOL,23801,01/23/2023,School,1,60625,41.97036267439323,-87.71036214052708,2,0
Fail,TORO JAPANESE RESTAURANT INC,2560884,01/23/2023,Restaurant,1,60614,41.9289565890134,-87.6426397468366,4,2
Pass,JERRY'S SANDWICHES,2411708,01/23/2023,Restaurant,1,60625,41.96769881732379,-87.68780818484225,2,0
Fail,SOMERSET/DEVEREAUX,2522223,01/23/2023,Restaurant,1,60610,41.902311915686454,-87.62849738136275,2,1
Pass,ECUADOR RESTAURANT INC,39981,01/23/2023,Restaurant,1,60647,41.93196325562962,-87.70099958246527,2,0
Pass,RED ROOSTER,2594846,01/23/2023,Restaurant,1,60649,41.765990001140594,-87.57378733665412,4,0
Pass,ARTHUR  A. LIBBY ELEMENTARY SCHOOL,1981868,01/23/2023,School,1,60609,41.796798535916395,-87.65994624487057,1,0
Fail,SUBWAY,1938179,01/23/2023,Restaurant,1,60619,41.7435467578672,-87.6242521859341,3,1
Pass,PITA PITA MEDITERRANEAN GRILL,2841290,01/23/2023,Restaurant,1,60612,41.87309735332711,-87.67745494311458,7,3
Pass,LYMAN A BUDLONG ELEMENTARY,22391,01/23/2023,School,1,60625,41.97572651851171,-87.69660442713682,7,2
Fail,TOCCO,2192968,01/23/2023,Restaurant,1,60666,42.008536400868735,-87.91442843927047,7,0
Pass,BURRITO BEACH,1142116,01/23/2023,Restaurant,1,60666,42.008536400868735,-87.91442843927047,5,1
Pass,SOMERSET/DEVEREAUX,2522216,01/23/2023,Restaurant,1,60610,41.902311915686454,-87.62849738136275,1,0
Pass,ASPIRA EARLY COLLEGE,2076639,01/23/2023,School,2,60618,41.93738186062328,-87.72682410240208,0,0
Fail,LOCAL MARKET,2689706,01/23/2023,Grocery Store,1,60649,41.765990001140594,-87.57378733665412,7,0
Fail,Burley Elementary,22421,01/23/2023,School,1,60657,41.93796493348329,-87.66985204161114,4,1
Pass,JEWEL FOOD STORE #2602,1402,01/23/2023,Grocery Store,1,60609,41.82758389676358,-87.68245444246118,3,0
Fail,AFRICAN FOOD PALACE,2786130,01/23/2023,Restaurant,1,60617,41.733126274660215,-87.55147733331737,15,2
Pass,GOLDEN DRAGON CHINESE RESTAURANT,2703451,01/23/2023,Restaurant,1,60612,41.881020491797024,-87.68867106150643,11,4
Fail,BILLYS GOAT'S,50158,01/23/2023,Restaurant,1,60607,41.8813532143597,-87.66591593930038,5,0
Pass,TACO MAYA,2863046,01/23/2023,Restaurant,1,60657,41.937633456808875,-87.66844084780955,0,0
Pass,MOBIL GAS AND FOOD MART,2622681,01/23/2023,Grocery Store,3,60626,42.01270437063092,-87.67450071917104,0,0
Pass,S & S THAI RESTAURANT INC.,2835415,01/23/2023,Restaurant,1,60641,41.946332650823166,-87.72754687888806,1,0
Fail,WILDBERRY PANCAKES & CAFE,2088572,01/23/2023,Restaurant,1,60601,41.884588371969095,-87.62327256105529,4,2
Fail,KFC,2636220,01/23/2023,Restaurant,1,60643,41.703900878937965,-87.68139649760822,6,0
Pass,GROVER CLEVELAND ELEMENTARY SCHOOL,1387,01/23/2023,School,1,60618,41.9520147036778,-87.70642927466382,2,0
Fail,SENORITAS,2671515,01/23/2023,Restaurant,1,60608,41.85810453086136,-87.65360897005824,12,4
Fail,KONG DOG,2637101,01/23/2023,Restaurant,1,60607,41.86943238157197,-87.66273255621276,5,0
Fail,SOMERSET/DEVEREAUX,2522224,01/23/2023,Restaurant,1,60610,41.902311915686454,-87.62849738136275,5,1
Fail,LA MICHOACANA ICE CREAM SHOP,2797770,01/23/2023,Restaurant,2,60641,41.93899744579538,-87.74241736722566,3,1
Pass,MILANO'S PIZZA,24438,01/24/2020,Restaurant,1,60643,41.6940420332519,-87.681078992843,0,0
Pass,LITTLE VIETNAM RESTAURANT,2594572,01/24/2020,Restaurant,1,60660,41.98374414417153,-87.65940408893736,0,0
Pass,Nino's Heroes Elementary,31101,01/24/2020,School,1,60617,41.743749689418706,-87.55189813096123,0,0
Pass,INFUSE HOSPITALITY,2631726,01/24/2020,Restaurant,2,60654,41.88874103813187,-87.63708054058772,0,0
Pass,GIORDANO'S,2398783,01/24/2022,Restaurant,1,60631,42.003062035390926,-87.81637371807534,0,0
Fail,"HALSTED SHELL, DUNKIN DONUTS, MR SUB",1330095,01/24/2022,Restaurant,2,60628,41.71580477012766,-87.64320825324427,16,5
Fail,RICA AREPA VENEZUELAN CAFE INC,2563826,01/24/2023,Restaurant,1,60639,41.91696265480475,-87.73366743914933,2,2
Pass,BELL HEIRS BBQ INC,2887118,01/24/2023,Restaurant,1,60609,41.80901096180861,-87.64336385382629,0,0
Fail,SUBWAY,1954041,01/24/2023,Restaurant,1,60613,41.94714045392253,-87.65393422004064,6,3
Fail,GORILLA SUSHI LOGAN SQUARE,2543141,01/24/2023,Restaurant,1,60647,41.93096908810037,-87.71028632230771,5,0
Pass,L & T CHINA FAST WOK INC.,2463130,01/24/2023,Restaurant,1,60647,41.91810712421967,-87.69736529538596,2,1
Pass,ALPANA,2807976,01/24/2023,Restaurant,1,60610,41.897601778585454,-87.62807769686262,3,0
Pass,MELI CAFE ON DEARBORN,2294320,01/24/2023,Restaurant,1,60605,41.87556910960446,-87.62938322586831,10,2
Pass,SUSHILICIOUS,2890455,01/24/2023,Restaurant,1,60646,41.99721918706988,-87.7645546496093,2,0
Pass,CHICK-FIL-A LOYOLA WATER TOWER,2506194,01/24/2023,Restaurant,1,60611,41.896803947893225,-87.6269202837321,7,0
Fail,KHEPRI CAFE,2683983,01/24/2023,Restaurant,1,60625,41.966061791348025,-87.7085480707044,4,0
Pass,STARBUCKS COFFEE #216,2812832,01/24/2023,Restaurant,2,60611,41.89334129631224,-87.61758915120579,0,0
Fail,JOE'S BARBEQ AND FISH #1,0,01/24/2023,Restaurant,1,60644,41.8803828652783,-87.74569046021573,24,6
Pass,HANDCUT FOODS,2354960,01/24/2023,School,1,60601,41.8866149095058,-87.61896496436381,2,0
Fail,GINO'S EAST OF CHICAGO,30142,01/24/2023,Restaurant,1,60605,41.87523755678771,-87.62907784469319,18,5
Pass,SNICKER'S BAR  & GRILL,2446404,01/24/2023,Restaurant,1,60654,41.89067889940841,-87.6281786988307,6,1
Pass,Brentano,22311,01/24/2023,School,1,60647,41.93097047175388,-87.69625758176569,0,0
Fail,BP,2078699,01/25/2011,Grocery Store,3,60622,41.89544655615747,-87.7062375407087,0,0
Pass,BOULEVARD SPORTS LOUNGE,2089403,01/25/2016,Restaurant,1,60647,41.91013882883812,-87.6939299081578,0,0
Fail,FAST SUPER BURITTO,1841156,01/25/2018,Restaurant,1,60613,41.95428475504034,-87.6773557509826,9,1
Pass,SUBWAY,1904894,01/25/2018,Restaurant,1,60605,41.8656758723776,-87.625943531346,0,0
Pass,Chartwells @ DePaul University,1166643,01/25/2023,Restaurant,1,60604,41.878110156499886,-87.62753454596945,2,0
Pass,"POTBELLY SANDWICH WORKS, LLC",2313501,01/25/2023,Restaurant,1,60622,41.905294766080985,-87.66927286318838,1,0
Fail,WINGSTOP,2517730,01/25/2023,Restaurant,1,60621,41.77982679720496,-87.64690261797884,9,3
Pass,FLIPPIN FLAVORS,2689671,01/25/2023,Restaurant,1,60643,41.72122967550103,-87.66949200357084,6,0
Fail,A TAVOLA,45044,01/25/2023,Restaurant,1,60622,41.89594582031756,-87.68145004376318,11,3
Fail,STAR EAST,1248852,01/25/2023,Restaurant,1,60639,41.92404294400852,-87.769032210279,2,1
Pass,SHOKRAN,1884050,01/25/2023,Restaurant,1,60641,41.95353192936301,-87.72833818191091,5,0
Pass,"SSP AMERICA, INC",2541992,01/25/2023,Restaurant,1,60638,41.78519267395424,-87.7667534323291,0,0
Pass,Belding Elementary School,22221,01/25/2023,School,1,60641,41.95890498761068,-87.73398223339892,1,0
Pass,POTBELLY SANDWICH SHOP,2418678,01/25/2023,Restaurant,1,60641,41.953489149800056,-87.73232020498648,1,0
Fail,"Green, W.",24131,01/25/2023,School,1,60643,41.71931953138713,-87.65248590555663,5,0
Fail,ORIENTAL CHOP SUEY,2423951,01/25/2023,Restaurant,1,60643,41.721243419132925,-87.66830278914065,10,0
Pass,ETHIOPIAN DIAMOND RESTAURANT,49379,01/25/2023,Restaurant,1,60660,41.992944134279234,-87.66050487502636,4,1
Fail,EATALY,2262496,01/25/2023,Restaurant,1,60611,41.89239475098296,-87.62641533543558,18,5
Fail,BAR LOUIE,2776415,01/25/2023,Restaurant,1,60605,41.87216695780119,-87.62957679729978,9,4
Fail,NOBU,2627477,01/25/2023,Restaurant,1,60607,41.8844794270512,-87.6496285473241,4,3
Fail,OUTPUT,2074594,01/25/2023,Restaurant,1,60622,41.891013896751915,-87.67198480289699,7,2
Fail,Hanson Park,24461,01/25/2023,School,1,60639,41.92392770522664,-87.76152094466592,1,1
Pass,DUNKIN DONUTS,1678255,01/25/2023,Restaurant,2,60601,41.88770537937826,-87.62058814392799,2,0
Pass,SUBWAY,1272426,01/25/2023,Restaurant,1,60657,41.93704235000386,-87.64814829224738,8,0
Pass,PROTEIN BAR,2373749,01/25/2023,Restaurant,1,60601,41.88454011059238,-87.62430852246028,0,0
Pass,JOY YEE PLUS,2008463,01/25/2023,Restaurant,1,60616,41.85362260604301,-87.63505989413537,7,1
Fail,BIG & LITTLE'S RESTAURANT,2308160,01/25/2023,Restaurant,1,60657,41.93999961847732,-87.65546972706031,5,0
Pass,PASTA AL GUSTO,2781503,01/25/2023,Restaurant,1,60657,41.9394659949947,-87.67808189198753,0,0
Pass,DEPASADA RESTAURANT,1818916,01/25/2023,Restaurant,1,60607,41.86917945744238,-87.66482775939852,5,1
Fail,AMELIA EARHART  ELEMENTARY,2046658,01/25/2023,School,2,60617,41.72613497913613,-87.58217726978825,3,1
Fail,Hanson Park Branch,24462,01/25/2023,School,1,60639,41.922831144138776,-87.75994374773492,1,1
Fail,TAQUERIA LA MEXICANA,32909,01/25/2023,Restaurant,1,60609,41.83063218466477,-87.64674676569695,4,2
Fail,SEVEN TREASURES,6231,01/25/2023,Restaurant,1,60616,41.850556411576726,-87.63211141670075,8,0
Pass,NEW PEARL'S PLACE RESTAURANT,2458709,01/25/2023,Restaurant,1,60653,41.82364931821311,-87.62302379163799,4,0
Fail,TIMEZSQUARE,2840097,01/25/2023,Grocery Store,3,60628,41.69620076046872,-87.64235277732084,9,0
Pass,ALEBRIJES CAFE,2694855,01/25/2023,Restaurant,1,60625,41.96827375769163,-87.7150390070548,3,1
Fail,LUVIANOS FAST FOOD,2890610,01/25/2023,Restaurant,1,60609,41.808675889263704,-87.66892613661817,4,0
Fail,KINCADE'S,11030,01/25/2023,Restaurant,1,60614,41.91822112070864,-87.65297305297553,3,1
Pass,BRUNCH N' BURGERS CHICAGO,2786037,01/25/2023,Restaurant,1,60612,41.868904814267175,-87.68343330010201,1,0
Pass,UNITED AMERICAN MUSLIM ASSOCIATION OF ILLINOIS INC,4073900,01/25/2023,School,1,60618,41.95548859652869,-87.71860389979875,18,0
Fail,CAFE CON LECHE D' NOCHE,2004043,01/25/2023,Restaurant,1,60647,41.930392307909585,-87.70980517549702,2,1
Fail,THE WORM HOLE,2021937,01/25/2023,Restaurant,2,60622,41.90837835089753,-87.67456920778488,9,3
Pass,"WENDY'S OLD FASHIONED HAMBURGERS OF NEW YORK,INC",2373869,01/25/2023,Restaurant,1,60629,41.78900459902208,-87.70328302524915,1,0
Fail,KINCADE'S,11034,01/25/2023,Restaurant,1,60614,41.91821976334081,-87.65305744895191,3,1
Pass,AFRICAN SUPERMARKET & LIQUOR,28149,01/25/2023,Grocery Store,2,60624,41.880779974868965,-87.7303060140944,5,0
Fail,TATAS TACOS,2589789,01/25/2023,Restaurant,1,60641,41.953263831201625,-87.7510919961523,6,0
Fail,BERNARD MOOS ELEMENTARY SCHOOL,24551,01/25/2023,School,1,60647,41.912531098361065,-87.6969054465616,4,1
Pass,"CHAVELO'S TACOS, INC",2813532,01/25/2023,Restaurant,1,60632,41.80763816876787,-87.73331806200785,6,2
Fail,BAMENDA FRESH ON JEFFERY,2868446,01/25/2023,Grocery Store,2,60617,41.720853484203275,-87.57517213662211,12,2
Pass,QUALITY TIME,2671685,01/25/2023,Restaurant,1,60647,41.932178909360545,-87.70151831687924,5,1
Fail,NOODLES & COMPANY,2065232,01/25/2023,Restaurant,1,60614,41.91758179156386,-87.6590228976662,8,2
Pass,SEAFOOD JUNCTION,2835293,01/25/2023,Restaurant,1,60609,41.796234875219376,-87.63040492438661,6,2
Fail,FORK FANTASY,2882595,01/25/2023,Restaurant,1,60607,41.87451215422576,-87.63986470914409,8,1
Fail,TORO JAPANESE RESTAURANT INC,2560884,01/25/2023,Restaurant,1,60614,41.9289565890134,-87.6426397468366,7,3
Pass,L + L PIZZERIA,2886848,01/25/2023,Restaurant,1,60609,41.82339003118205,-87.6722362475433,6,1
Fail,POPEYE'S,2489026,01/25/2023,Restaurant,1,60608,41.8353362239431,-87.66583085901608,12,8
Pass,THE BUDLONG HOT CHICKEN,2516815,01/25/2023,Restaurant,1,60625,41.9654991094368,-87.68866018713253,2,1
Pass,"PATIO BEEF, INC",2279587,01/25/2023,Restaurant,1,60660,41.99164923315811,-87.66046438723393,0,0
Fail,JAY'S BACKYARD BBQ,2641588,01/25/2023,Restaurant,1,60651,41.90225163790281,-87.76587291212932,15,3
Pass,SOPRAFFINA MARKETCAFFE,58044,01/25/2023,Restaurant,1,60601,41.8846320757672,-87.6222479910888,2,0
Pass,POPPIN DOUGH,2427736,01/25/2023,Restaurant,2,60643,41.72121126407833,-87.65437692905823,6,0
Pass,GALLERY CAFE,2713470,01/25/2023,Restaurant,2,60642,41.8951328475832,-87.653907100256,9,2
Pass,"EL ORIGINAL CHAVAS TACOS, INC.",1964229,01/25/2023,Restaurant,1,60612,41.89056935541283,-87.68557424853155,1,0
Pass,PIZZA HUT,2476782,01/25/2023,Restaurant,2,60609,41.796234875219376,-87.63040492438661,1,0
Fail,UBERSTEIN,30598,01/26/2010,Restaurant,1,60657,41.945490352324526,-87.65530902311264,0,0
Pass,MR GREEK GYROS INC,58084,01/26/2015,Restaurant,1,60661,41.878102403055955,-87.64739070558905,8,1
Fail,SWAGGER BAR & GRILL,2412233,01/26/2016,Restaurant,2,60615,41.80242492805717,-87.61956496592906,11,4
Pass,SUNDA,2432361,01/26/2016,Restaurant,1,60654,41.890924221316645,-87.6316177901787,0,0
Pass,YA KWANG,2235049,01/26/2018,Restaurant,1,60625,41.97459679112475,-87.692355410720907,0,0
Pass,WOW BAO,1742905,01/26/2018,Restaurant,1,60604,41.878014487249544,-87.63318903001444,1,0
Pass,PROTEIN BAR,2252786,01/26/2018,Restaurant,1,60654,41.8880742810662,-87.63495520292739,0,0
Pass,POPEYE'S#835,2594633,01/26/2023,Restaurant,1,60624,41.86621301898216,-87.7127816493052,15,4
Fail,HOTEL ZACHARY,2578015,01/26/2023,Restaurant,1,60613,41.947965602336375,-87.65729854258726,16,6
Fail,BURGER KING,2487684,01/26/2023,Restaurant,2,60614,41.9328407126909,-87.64851624582587,13,7
Pass,PAK SWEETS INC.,2812873,01/26/2023,Restaurant,1,60659,41.997861005185875,-87.68860508498791,3,0
Fail,SILK ROAD OF CHICAGO,2744832,01/26/2023,Restaurant,1,60603,41.88141900800828,-87.63220320776806,4,3
Fail,ROSATI'S PIZZA,2814135,01/26/2023,Restaurant,1,60618,41.946879790091614,-87.68811383137822,19,5
Pass,JOHN AUDUBON ELEMENTARY SCHOOL,22091,01/26/2023,School,1,60618,41.945098077372535,-87.68107885384137,3,1
Fail,BEST SUB #2,2588772,01/26/2023,Restaurant,1,60622,41.90282606303337,-87.69560739209435,11,2
Pass,CARNICERIA LA HACIENDA #5,2835193,01/26/2023,Grocery Store,1,60632,41.8014000330526,-87.72604374190084,3,1
Pass,87TH STREET JERK & SEAFOOD MARKET,2823307,01/26/2023,Restaurant,1,60620,41.735860336679785,-87.66601508725583,6,0
Pass,CHURCH'S CHICKEN # 1054,1273277,01/26/2023,Restaurant,2,60609,41.808662601878325,-87.67025444015965,5,1
Fail,Scammon Elementary School,25241,01/26/2023,School,1,60641,41.941649437310005,-87.73222900844841,4,1
Fail,JEWEL FOOD STORE #3092,1411,01/26/2023,Grocery Store,1,60617,41.722263198133774,-87.58291763461929,26,4
Pass,FRESH MARKET PLACE #3,2708661,01/26/2023,Grocery Store,1,60639,41.92427271358551,-87.75211503765784,10,2
Fail,CHINA CAFE,2671259,01/26/2023,Restaurant,1,60616,41.85093939280557,-87.63212018252484,13,1
Pass,SUBWAY SANDWICH & SALAD,83040,01/26/2023,Restaurant,1,60616,41.83793909142486,-87.64596375096664,0,0
Fail,CRISP,1868619,01/26/2023,Restaurant,1,60657,41.93610815174804,-87.64441137564677,14,1
Fail,MARISCOS PLAYA AZUL,2496427,01/26/2023,Restaurant,1,60641,41.938565657391784,-87.75855584047643,6,3
Fail,MING BRICKYARD SUPER CHINA BUFFET INC.,1490057,01/26/2023,Restaurant,1,60639,41.92884722332376,-87.78578101920121,1,1
Pass,GIORDANO'S OF BEVERLY,2074456,01/26/2023,Restaurant,1,60643,41.71868263931775,-87.68184758141176,2,0
Pass,TOON'S BAR & GRILL,17186,01/26/2023,Restaurant,1,60613,41.95240164062764,-87.66401827319031,6,1
Pass,STARBUCKS,34211,01/26/2023,Restaurant,2,60666,42.008536400868735,-87.91442843927047,2,0
Pass,ZEUS GYROS INC,46817,01/26/2023,Restaurant,1,60607,41.878052102880496,-87.64756642031503,6,0
Fail,SUMMER HOUSE (T2 MAIN),34183,01/26/2023,Restaurant,1,60666,42.008536400868735,-87.91442843927047,3,1
Pass,SIRI INDIAN RESTAURANT,2602169,01/26/2023,Restaurant,1,60607,41.86939628798951,-87.66499334444555,13,3
Pass,HORIZON SCIENCE ACADEMY McKINLEY PARK,3247466,01/26/2023,School,1,60609,41.82291858708595,-87.681778627121,3,1
Fail,MARGARITA'S PIZZERIA,1875208,01/26/2023,Restaurant,1,60619,41.75849308118378,-87.61647025913092,15,3
Pass,BURGER KING #10345,2368801,01/26/2023,Restaurant,2,60608,41.83660842037554,-87.66557057083158,1,0
Pass,PIZZA-METRO,1545880,01/26/2023,Restaurant,1,60622,41.90319053056459,-87.67029008677447,4,1
Fail,UNITED CLUB,2818273,01/26/2023,Restaurant,1,60666,42.008536400868735,-87.91442843927047,8,1
Pass,KAISER TIGER,2359936,01/26/2023,Restaurant,1,60607,41.88404872515133,-87.66305613344618,6,0
Fail,AVLI TAVERNA,2616777,01/26/2023,Restaurant,1,60614,41.92875605419546,-87.66237147194119,18,3
Fail,"WINGS OVER HARRISON, LLC/WINGSTOP RESTAURANTS, INC",2517705,01/26/2023,Restaurant,1,60605,41.87448905670627,-87.6273652953713,15,6
Pass,GRACE CHRISTIAN ACADEMY,3491743,01/26/2023,School,1,60623,41.84064044350548,-87.72721990630961,1,0
Fail,Burbank,22401,01/26/2023,School,1,60639,41.91759334051134,-87.78266266765927,1,1
Fail,MARIANO'S #8538,2446998,01/26/2023,Grocery Store,1,60657,41.93733843730944,-87.64445647150518,13,4
Fail,PILSEN ELEMENTARY,31141,01/26/2023,School,1,60608,41.85887605891408,-87.66222540281572,5,1
Fail,PROTEIN PARIS,2890550,01/26/2023,Restaurant,2,60647,41.93199056575183,-87.71957718093888,8,2
Fail,SILA'S MEDITERRANEAN,2803205,01/26/2023,Restaurant,1,60657,41.93805777122924,-87.6444808125829,8,2
Pass,Edgebrook,23071,01/26/2023,School,1,60646,41.99946016477578,-87.7618211032257,0,0
Pass,JERKY JERK RARE,2684305,01/26/2023,Restaurant,1,60612,41.86890766821779,-87.683275390726,8,1
Pass,CONTE'S PIZZERIA,2890549,01/26/2023,Restaurant,1,60652,41.73811752095403,-87.72169161073629,3,0
Pass,SCOFFLAW,84648,01/26/2023,Restaurant,1,60647,41.91729149564559,-87.70705160149535,3,0
Pass,NEPAL HOUSE,2222204,01/26/2023,Restaurant,1,60605,41.86570260855135,-87.62396590534365,5,1
Fail,AJAWAAH SWEETS,2386163,01/26/2023,Restaurant,1,60659,41.99758611677132,-87.6920046207453,4,1
Fail,FRY THE COOP,2678075,01/26/2023,Restaurant,1,60642,41.89598204592076,-87.66604606950455,11,2
Pass,WOLF BUTCHER INC.,2890445,01/26/2023,Grocery Store,3,60651,41.89473981572048,-87.76562673682143,0,0
Fail,TUMANS,1273473,01/26/2023,Restaurant,1,60622,41.8957195700408,-87.68182311956286,13,5
Pass,SPICY FINGERS,2615661,01/26/2023,Restaurant,1,60642,41.89597196048914,-87.6668196996518,6,1
Fail,PEKE'S POZOLE,2595283,01/26/2023,Restaurant,1,60632,41.80721664632841,-87.72371315761129,4,1
Fail,GIORDANO'S PIZZA,35633,01/26/2023,Restaurant,1,60615,41.799155754303854,-87.59028088059789,11,4
Fail,PARK  PLAZA RETIREMENT CENTER,2032949,01/26/2023,Restaurant,1,60645,42.00599079054638,-87.70472572459504,3,1
Fail,MOON'S SANDWICH SHOP,1804509,01/26/2023,Restaurant,1,60612,41.880677409478736,-87.68656689128477,4,0
Fail,EPIC BURGER,1904806,01/26/2023,Restaurant,2,60605,41.875313842367994,-87.62747311617227,5,2
Fail,TAQUERIA ATOTONILCO #2,7861,01/26/2023,Restaurant,1,60609,41.808476157506206,-87.66691320039692,5,1
Fail,CHIPOTLE MEXICAN GRILL,1496019,01/26/2023,Restaurant,1,60643,41.72108295395987,-87.67978067609734,5,2
Pass,W CHICAGO-CITY CENTER,2138443,01/26/2023,Restaurant,1,60603,41.879503650161986,-87.63296974156731,7,2
Pass,MR.SUBMARINE,35117,01/26/2023,Restaurant,1,60643,41.70241717076083,-87.68134559218737,13,1
Pass,TAMALES LO MEJOR DE GUERRERO,1717312,01/26/2023,Restaurant,1,60626,42.00975821945845,-87.67428823219575,1,0
Fail,BABA PITA,2595661,01/26/2023,Restaurant,1,60612,41.8688772011714,-87.6853578049071,3,0
Pass,"TAQUERIA MISANTLA VER, INC.",2886356,01/26/2023,Restaurant,1,60623,41.846538888991475,-87.70495285575998,8,1
Pass,POPEYE'S #862,2738644,01/26/2023,Restaurant,1,60653,41.80965253314558,-87.60574752734975,7,2
Fail,El Patron II,2659232,01/26/2023,Restaurant,1,60623,41.85164288650078,-87.7064081112397,10,3
Fail,BJ'S MARKET & BAKERY,55054,01/27/2014,Restaurant,1,60617,41.73585957574674,-87.58577161179068,10,3
Pass,THE WORM HOLE,2021937,01/27/2023,Restaurant,2,60622,41.90837835089753,-87.67456920778488,9,3
Pass,"BABAS FISH & CHICKEN, INC",2841390,01/27/2023,Restaurant,1,60621,41.779784072879195,-87.64970295329033,18,3
Pass,STAR LIGHT FOOD MARKET,1874058,01/27/2023,Grocery Store,1,60616,41.852052519797155,-87.63250528112087,16,1
Fail,OMAKIN RESTAURANTS,2708503,01/27/2023,Restaurant,2,60621,41.76915533533597,-87.62681267627248,5,1
Pass,DUKE'S,2431752,01/27/2023,Restaurant,1,60646,41.984618430365195,-87.76815926802585,4,0
Fail,JACKYS HOT DOGS,3775,01/27/2023,Restaurant,1,60632,41.794560965932575,-87.72305196106626,3,0
